{
"type": "FeatureCollection",
"name": "healthcentres",
"crs": { "type": "name", "properties": { "name": "urn:ogc:def:crs:OGC:1.3:CRS84" } },
"features": [
{ "type": "Feature", "properties": { "OBJECTID": 1, "name": "Jubilee Centre Karen", "name_en": null, "amenity": "clinic", "building": null, "healthcare": "clinic", "healthca_1": null, "operator_t": null, "capacity_p": null, "addr_full": null, "addr_city": "Nairobi", "source": null, "name_sw": null, "osm_id": 7501513238.0, "osm_type": "nodes" }, "geometry": { "type": "Point", "coordinates": [ 36.757504336481993, -1.340810741554094 ] } },
{ "type": "Feature", "properties": { "OBJECTID": 2, "name": "Lea Toto Community (Mukuru Reuben)", "name_en": null, "amenity": "clinic", "building": null, "healthcare": "clinic", "healthca_1": null, "operator_t": "religious", "capacity_p": null, "addr_full": null, "addr_city": null, "source": null, "name_sw": null, "osm_id": 949597526.0, "osm_type": "nodes" }, "geometry": { "type": "Point", "coordinates": [ 36.869469821144783, -1.315938323906926 ] } },
{ "type": "Feature", "properties": { "OBJECTID": 3, "name": "Mwangaza Ulio na Tumaini Clinic", "name_en": null, "amenity": "hospital", "building": null, "healthcare": "hospital", "healthca_1": null, "operator_t": null, "capacity_p": null, "addr_full": null, "addr_city": null, "source": null, "name_sw": null, "osm_id": 8891939521.0, "osm_type": "nodes" }, "geometry": { "type": "Point", "coordinates": [ 36.891887437827044, -1.25110107535652 ] } },
{ "type": "Feature", "properties": { "OBJECTID": 4, "name": "Aga Khan Clinic Embakasi", "name_en": null, "amenity": "clinic", "building": null, "healthcare": "clinic;doctor;physiotherapist", "healthca_1": "biological_haematology;blood_check;dental_oral_maxillo_facial_surgery;dermatology;emergency;gynaecology;occupational;vaccination", "operator_t": "private", "capacity_p": null, "addr_full": null, "addr_city": "Nairobi", "source": null, "name_sw": null, "osm_id": 7569664285.0, "osm_type": "nodes" }, "geometry": { "type": "Point", "coordinates": [ 36.897377341819848, -1.318952326196311 ] } },
{ "type": "Feature", "properties": { "OBJECTID": 5, "name": "Empire Chemist", "name_en": null, "amenity": "*", "building": null, "healthcare": "*", "healthca_1": null, "operator_t": null, "capacity_p": null, "addr_full": null, "addr_city": null, "source": null, "name_sw": null, "osm_id": 8891997095.0, "osm_type": "nodes" }, "geometry": { "type": "Point", "coordinates": [ 36.891187737748986, -1.249130773894841 ] } },
{ "type": "Feature", "properties": { "OBJECTID": 6, "name": "New Hope chemist", "name_en": null, "amenity": "pharmacy", "building": null, "healthcare": null, "healthca_1": null, "operator_t": null, "capacity_p": null, "addr_full": null, "addr_city": null, "source": null, "name_sw": null, "osm_id": 3856148566.0, "osm_type": "nodes" }, "geometry": { "type": "Point", "coordinates": [ 36.849412705753515, -1.31444952284329 ] } },
{ "type": "Feature", "properties": { "OBJECTID": 7, "name": "legacy dispensing chemist", "name_en": null, "amenity": "hospital", "building": null, "healthcare": null, "healthca_1": null, "operator_t": null, "capacity_p": null, "addr_full": null, "addr_city": null, "source": null, "name_sw": null, "osm_id": 3723146925.0, "osm_type": "nodes" }, "geometry": { "type": "Point", "coordinates": [ 36.892281238835331, -1.246122472491719 ] } },
{ "type": "Feature", "properties": { "OBJECTID": 8, "name": null, "name_en": null, "amenity": "pharmacy", "building": null, "healthcare": null, "healthca_1": null, "operator_t": null, "capacity_p": null, "addr_full": null, "addr_city": null, "source": null, "name_sw": null, "osm_id": 2405883356.0, "osm_type": "nodes" }, "geometry": { "type": "Point", "coordinates": [ 36.89893684331841, -1.239533466960608 ] } },
{ "type": "Feature", "properties": { "OBJECTID": 9, "name": "Malibu", "name_en": null, "amenity": "pharmacy", "building": null, "healthcare": "pharmacy", "healthca_1": null, "operator_t": null, "capacity_p": null, "addr_full": null, "addr_city": null, "source": null, "name_sw": null, "osm_id": 6110577686.0, "osm_type": "nodes" }, "geometry": { "type": "Point", "coordinates": [ 36.826529788947461, -1.288003303361839 ] } },
{ "type": "Feature", "properties": { "OBJECTID": 10, "name": "Late night chemist", "name_en": null, "amenity": "pharmacy", "building": null, "healthcare": null, "healthca_1": null, "operator_t": null, "capacity_p": null, "addr_full": null, "addr_city": null, "source": null, "name_sw": null, "osm_id": 1124602228.0, "osm_type": "nodes" }, "geometry": { "type": "Point", "coordinates": [ 36.864450617379525, -1.258917581822849 ] } },
{ "type": "Feature", "properties": { "OBJECTID": 11, "name": "Faith healer", "name_en": null, "amenity": "*", "building": null, "healthcare": "alternative", "healthca_1": null, "operator_t": null, "capacity_p": null, "addr_full": null, "addr_city": null, "source": null, "name_sw": null, "osm_id": 8891997076.0, "osm_type": "nodes" }, "geometry": { "type": "Point", "coordinates": [ 36.891687338417185, -1.251718776065542 ] } },
{ "type": "Feature", "properties": { "OBJECTID": 12, "name": "Real Hospital Utawala", "name_en": null, "amenity": "hospital", "building": null, "healthcare": "hospital", "healthca_1": null, "operator_t": null, "capacity_p": null, "addr_full": null, "addr_city": null, "source": null, "name_sw": null, "osm_id": 9800970628.0, "osm_type": "nodes" }, "geometry": { "type": "Point", "coordinates": [ 36.972830199332442, -1.286689302638489 ] } },
{ "type": "Feature", "properties": { "OBJECTID": 13, "name": "Mediheal Utawala", "name_en": null, "amenity": "hospital", "building": null, "healthcare": "hospital", "healthca_1": null, "operator_t": null, "capacity_p": null, "addr_full": null, "addr_city": null, "source": null, "name_sw": null, "osm_id": 9800982577.0, "osm_type": "nodes" }, "geometry": { "type": "Point", "coordinates": [ 36.971480497873749, -1.289004004472359 ] } },
{ "type": "Feature", "properties": { "OBJECTID": 14, "name": "Gibbos Clinic", "name_en": null, "amenity": "clinic", "building": null, "healthcare": "clinic", "healthca_1": null, "operator_t": null, "capacity_p": null, "addr_full": null, "addr_city": null, "source": null, "name_sw": null, "osm_id": 9800982566.0, "osm_type": "nodes" }, "geometry": { "type": "Point", "coordinates": [ 36.972776599252875, -1.290183905066742 ] } },
{ "type": "Feature", "properties": { "OBJECTID": 15, "name": "Uzima2 clinic", "name_en": null, "amenity": "clinic", "building": null, "healthcare": null, "healthca_1": null, "operator_t": "private", "capacity_p": null, "addr_full": null, "addr_city": null, "source": null, "name_sw": null, "osm_id": 4502112970.0, "osm_type": "nodes" }, "geometry": { "type": "Point", "coordinates": [ 36.859258713438606, -1.264219285306482 ] } },
{ "type": "Feature", "properties": { "OBJECTID": 16, "name": "Villa Medical Centre", "name_en": null, "amenity": "clinic", "building": null, "healthcare": null, "healthca_1": null, "operator_t": "private", "capacity_p": null, "addr_full": null, "addr_city": null, "source": null, "name_sw": null, "osm_id": 4503879853.0, "osm_type": "nodes" }, "geometry": { "type": "Point", "coordinates": [ 36.863529917012642, -1.262899584509524 ] } },
{ "type": "Feature", "properties": { "OBJECTID": 17, "name": "Glorious Chemist and Clinic", "name_en": null, "amenity": "clinic", "building": null, "healthcare": null, "healthca_1": null, "operator_t": "private", "capacity_p": null, "addr_full": null, "addr_city": null, "source": null, "name_sw": null, "osm_id": 4504009846.0, "osm_type": "nodes" }, "geometry": { "type": "Point", "coordinates": [ 36.861263414999364, -1.261958283539962 ] } },
{ "type": "Feature", "properties": { "OBJECTID": 18, "name": "Pona Medical Centre", "name_en": null, "amenity": "clinic", "building": null, "healthcare": null, "healthca_1": null, "operator_t": "private", "capacity_p": null, "addr_full": null, "addr_city": null, "source": null, "name_sw": null, "osm_id": 4504009847.0, "osm_type": "nodes" }, "geometry": { "type": "Point", "coordinates": [ 36.860518614602512, -1.262043783999778 ] } },
{ "type": "Feature", "properties": { "OBJECTID": 19, "name": "Hope chemist", "name_en": null, "amenity": "hospital", "building": null, "healthcare": null, "healthca_1": null, "operator_t": "private", "capacity_p": null, "addr_full": null, "addr_city": null, "source": null, "name_sw": null, "osm_id": 2378857096.0, "osm_type": "nodes" }, "geometry": { "type": "Point", "coordinates": [ 36.861039515143581, -1.261455683446053 ] } },
{ "type": "Feature", "properties": { "OBJECTID": 20, "name": "Baraka chemist", "name_en": null, "amenity": "pharmacy", "building": null, "healthcare": null, "healthca_1": null, "operator_t": "private", "capacity_p": null, "addr_full": null, "addr_city": null, "source": null, "name_sw": null, "osm_id": 4503972768.0, "osm_type": "nodes" }, "geometry": { "type": "Point", "coordinates": [ 36.863175316633935, -1.26114308339509 ] } },
{ "type": "Feature", "properties": { "OBJECTID": 21, "name": "Vincent Chemist Mabatini", "name_en": null, "amenity": "pharmacy", "building": null, "healthcare": null, "healthca_1": null, "operator_t": "private", "capacity_p": null, "addr_full": null, "addr_city": null, "source": null, "name_sw": null, "osm_id": 4503972775.0, "osm_type": "nodes" }, "geometry": { "type": "Point", "coordinates": [ 36.863924117307135, -1.260620082896845 ] } },
{ "type": "Feature", "properties": { "OBJECTID": 22, "name": "Pona 3 Dispensary", "name_en": null, "amenity": "pharmacy", "building": null, "healthcare": null, "healthca_1": null, "operator_t": "private", "capacity_p": null, "addr_full": null, "addr_city": null, "source": null, "name_sw": null, "osm_id": 4503959148.0, "osm_type": "nodes" }, "geometry": { "type": "Point", "coordinates": [ 36.856827411907197, -1.263214884663074 ] } },
{ "type": "Feature", "properties": { "OBJECTID": 23, "name": "AIC Zion Medical Clinic", "name_en": null, "amenity": "clinic", "building": null, "healthcare": null, "healthca_1": null, "operator_t": "faith_based_organization", "capacity_p": null, "addr_full": null, "addr_city": null, "source": null, "name_sw": null, "osm_id": 4503879843.0, "osm_type": "nodes" }, "geometry": { "type": "Point", "coordinates": [ 36.862288916188312, -1.263019084236911 ] } },
{ "type": "Feature", "properties": { "OBJECTID": 24, "name": "Dandora II Health Center", "name_en": null, "amenity": "dentist", "building": null, "healthcare": "dentist", "healthca_1": null, "operator_t": null, "capacity_p": null, "addr_full": null, "addr_city": null, "source": null, "name_sw": null, "osm_id": 8962970093.0, "osm_type": "nodes" }, "geometry": { "type": "Point", "coordinates": [ 36.903439646993313, -1.247688473070195 ] } },
{ "type": "Feature", "properties": { "OBJECTID": 25, "name": "Mertenity clinic", "name_en": null, "amenity": "hospital", "building": null, "healthcare": null, "healthca_1": null, "operator_t": null, "capacity_p": null, "addr_full": null, "addr_city": null, "source": null, "name_sw": null, "osm_id": 1419101749.0, "osm_type": "nodes" }, "geometry": { "type": "Point", "coordinates": [ 36.887053333973654, -1.319467326578522 ] } },
{ "type": "Feature", "properties": { "OBJECTID": 26, "name": "Johana Justin Jinnich(Shofco Mathre)", "name_en": null, "amenity": "hospital", "building": null, "healthcare": "hospital", "healthca_1": null, "operator_t": "ngo_national", "capacity_p": null, "addr_full": null, "addr_city": null, "source": null, "name_sw": null, "osm_id": 4503896057.0, "osm_type": "nodes" }, "geometry": { "type": "Point", "coordinates": [ 36.857880112785892, -1.263384984775599 ] } },
{ "type": "Feature", "properties": { "OBJECTID": 27, "name": "St Edith", "name_en": null, "amenity": "pharmacy", "building": null, "healthcare": "pharmacy", "healthca_1": null, "operator_t": "private", "capacity_p": null, "addr_full": null, "addr_city": null, "source": null, "name_sw": null, "osm_id": 2052594493.9999998, "osm_type": "nodes" }, "geometry": { "type": "Point", "coordinates": [ 36.794987565130413, -1.31118852047839 ] } },
{ "type": "Feature", "properties": { "OBJECTID": 28, "name": "Raisi chemist", "name_en": null, "amenity": "pharmacy", "building": null, "healthcare": "pharmacy", "healthca_1": null, "operator_t": "private", "capacity_p": null, "addr_full": null, "addr_city": null, "source": null, "name_sw": null, "osm_id": 612008410.0, "osm_type": "nodes" }, "geometry": { "type": "Point", "coordinates": [ 36.785983958534558, -1.309717419105935 ] } },
{ "type": "Feature", "properties": { "OBJECTID": 29, "name": "Elmac Chemist", "name_en": null, "amenity": "pharmacy", "building": null, "healthcare": "pharmacy", "healthca_1": null, "operator_t": "private", "capacity_p": null, "addr_full": null, "addr_city": null, "source": null, "name_sw": null, "osm_id": 612008876.0, "osm_type": "nodes" }, "geometry": { "type": "Point", "coordinates": [ 36.777434052055341, -1.313590021956577 ] } },
{ "type": "Feature", "properties": { "OBJECTID": 30, "name": "Neema", "name_en": null, "amenity": "pharmacy", "building": null, "healthcare": "pharmacy", "healthca_1": null, "operator_t": "private", "capacity_p": null, "addr_full": null, "addr_city": null, "source": null, "name_sw": null, "osm_id": 696655680.0, "osm_type": "nodes" }, "geometry": { "type": "Point", "coordinates": [ 36.777540052253777, -1.313058421621101 ] } },
{ "type": "Feature", "properties": { "OBJECTID": 31, "name": "Trust and Rejoice Medical Clinic", "name_en": null, "amenity": "pharmacy", "building": null, "healthcare": null, "healthca_1": null, "operator_t": null, "capacity_p": null, "addr_full": null, "addr_city": null, "source": null, "name_sw": null, "osm_id": 1456685402.0, "osm_type": "nodes" }, "geometry": { "type": "Point", "coordinates": [ 36.848043505284217, -1.313894922157261 ] } },
{ "type": "Feature", "properties": { "OBJECTID": 32, "name": "Kemri/Cdc Program", "name_en": null, "amenity": null, "building": null, "healthcare": "laboratory", "healthca_1": null, "operator_t": "cbo", "capacity_p": null, "addr_full": null, "addr_city": null, "source": null, "name_sw": null, "osm_id": 7930812999.0, "osm_type": "nodes" }, "geometry": { "type": "Point", "coordinates": [ 36.779484052995798, -1.314024821860627 ] } },
{ "type": "Feature", "properties": { "OBJECTID": 33, "name": "Wa Ann Pharmacy", "name_en": null, "amenity": "pharmacy", "building": null, "healthcare": null, "healthca_1": null, "operator_t": "unknown", "capacity_p": null, "addr_full": null, "addr_city": null, "source": null, "name_sw": null, "osm_id": 8074036736.0, "osm_type": "nodes" }, "geometry": { "type": "Point", "coordinates": [ 36.7533233337779, -1.297963010435256 ] } },
{ "type": "Feature", "properties": { "OBJECTID": 34, "name": "L", "name_en": null, "amenity": "pharmacy", "building": null, "healthcare": null, "healthca_1": null, "operator_t": "unknown", "capacity_p": null, "addr_full": null, "addr_city": null, "source": null, "name_sw": null, "osm_id": 8074036736.999999, "osm_type": "nodes" }, "geometry": { "type": "Point", "coordinates": [ 36.75329693358929, -1.297984410537296 ] } },
{ "type": "Feature", "properties": { "OBJECTID": 35, "name": "Vinly", "name_en": null, "amenity": "pharmacy", "building": null, "healthcare": null, "healthca_1": null, "operator_t": "unknown", "capacity_p": null, "addr_full": null, "addr_city": null, "source": null, "name_sw": null, "osm_id": 8074036747.999999, "osm_type": "nodes" }, "geometry": { "type": "Point", "coordinates": [ 36.753049933433267, -1.288933603690426 ] } },
{ "type": "Feature", "properties": { "OBJECTID": 36, "name": "St Ann's", "name_en": null, "amenity": "pharmacy", "building": null, "healthcare": null, "healthca_1": null, "operator_t": "unknown", "capacity_p": null, "addr_full": null, "addr_city": null, "source": null, "name_sw": null, "osm_id": 8074036750.0, "osm_type": "nodes" }, "geometry": { "type": "Point", "coordinates": [ 36.756158935677377, -1.279904096264501 ] } },
{ "type": "Feature", "properties": { "OBJECTID": 37, "name": "Sanmed Chemist", "name_en": null, "amenity": "pharmacy", "building": null, "healthcare": null, "healthca_1": null, "operator_t": "unknown", "capacity_p": null, "addr_full": null, "addr_city": null, "source": null, "name_sw": null, "osm_id": 8074036771.0, "osm_type": "nodes" }, "geometry": { "type": "Point", "coordinates": [ 36.753149833866786, -1.288711802978528 ] } },
{ "type": "Feature", "properties": { "OBJECTID": 38, "name": "Chemist", "name_en": null, "amenity": "pharmacy", "building": null, "healthcare": null, "healthca_1": null, "operator_t": "unknown", "capacity_p": null, "addr_full": null, "addr_city": null, "source": null, "name_sw": null, "osm_id": 8074036776.0, "osm_type": "nodes" }, "geometry": { "type": "Point", "coordinates": [ 36.751323332560823, -1.288577202808906 ] } },
{ "type": "Feature", "properties": { "OBJECTID": 39, "name": "Duka LA Dawa", "name_en": null, "amenity": "pharmacy", "building": null, "healthcare": null, "healthca_1": null, "operator_t": "unknown", "capacity_p": null, "addr_full": null, "addr_city": null, "source": null, "name_sw": null, "osm_id": 8074036784.0, "osm_type": "nodes" }, "geometry": { "type": "Point", "coordinates": [ 36.733277918356031, -1.291476105632946 ] } },
{ "type": "Feature", "properties": { "OBJECTID": 40, "name": "Sky Chemist", "name_en": null, "amenity": "pharmacy", "building": null, "healthcare": null, "healthca_1": null, "operator_t": "unknown", "capacity_p": null, "addr_full": null, "addr_city": null, "source": null, "name_sw": null, "osm_id": 8074036786.0, "osm_type": "nodes" }, "geometry": { "type": "Point", "coordinates": [ 36.751435632398206, -1.290371404503676 ] } },
{ "type": "Feature", "properties": { "OBJECTID": 41, "name": "Bestamed Pharmacy", "name_en": null, "amenity": "pharmacy", "building": null, "healthcare": null, "healthca_1": null, "operator_t": "unknown", "capacity_p": null, "addr_full": null, "addr_city": null, "source": null, "name_sw": null, "osm_id": 8074036788.000001, "osm_type": "nodes" }, "geometry": { "type": "Point", "coordinates": [ 36.734625319813667, -1.292912006480238 ] } },
{ "type": "Feature", "properties": { "OBJECTID": 42, "name": "Clinic", "name_en": null, "amenity": "pharmacy", "building": null, "healthcare": null, "healthca_1": null, "operator_t": "unknown", "capacity_p": null, "addr_full": null, "addr_city": null, "source": null, "name_sw": null, "osm_id": 8074036791.0, "osm_type": "nodes" }, "geometry": { "type": "Point", "coordinates": [ 36.753407033990229, -1.287254702373187 ] } },
{ "type": "Feature", "properties": { "OBJECTID": 43, "name": "Keystone Pharmacy", "name_en": null, "amenity": "pharmacy", "building": null, "healthcare": null, "healthca_1": null, "operator_t": "unknown", "capacity_p": null, "addr_full": null, "addr_city": null, "source": null, "name_sw": null, "osm_id": 8074036791.999999, "osm_type": "nodes" }, "geometry": { "type": "Point", "coordinates": [ 36.756459036080805, -1.286054801136287 ] } },
{ "type": "Feature", "properties": { "OBJECTID": 44, "name": "Assurelab", "name_en": null, "amenity": "pharmacy", "building": null, "healthcare": null, "healthca_1": null, "operator_t": "unknown", "capacity_p": null, "addr_full": null, "addr_city": null, "source": null, "name_sw": null, "osm_id": 8074036793.0, "osm_type": "nodes" }, "geometry": { "type": "Point", "coordinates": [ 36.741395625162049, -1.286779801803224 ] } },
{ "type": "Feature", "properties": { "OBJECTID": 45, "name": "Ninalink Chemist", "name_en": null, "amenity": "pharmacy", "building": null, "healthcare": null, "healthca_1": null, "operator_t": "unknown", "capacity_p": null, "addr_full": null, "addr_city": null, "source": null, "name_sw": null, "osm_id": 8074036800.999999, "osm_type": "nodes" }, "geometry": { "type": "Point", "coordinates": [ 36.748364030364883, -1.29128480497682 ] } },
{ "type": "Feature", "properties": { "OBJECTID": 46, "name": "Galex", "name_en": null, "amenity": "pharmacy", "building": null, "healthcare": null, "healthca_1": null, "operator_t": "unknown", "capacity_p": null, "addr_full": null, "addr_city": null, "source": null, "name_sw": null, "osm_id": 8074036802.0, "osm_type": "nodes" }, "geometry": { "type": "Point", "coordinates": [ 36.748393829967036, -1.291738805087065 ] } },
{ "type": "Feature", "properties": { "OBJECTID": 47, "name": "Jomu Pharmaceutical", "name_en": null, "amenity": "pharmacy", "building": null, "healthcare": null, "healthca_1": null, "operator_t": "unknown", "capacity_p": null, "addr_full": null, "addr_city": null, "source": null, "name_sw": null, "osm_id": 8074036797.0, "osm_type": "nodes" }, "geometry": { "type": "Point", "coordinates": [ 36.743170026322417, -1.282896498532353 ] } },
{ "type": "Feature", "properties": { "OBJECTID": 48, "name": "Janjay Chemists", "name_en": null, "amenity": "pharmacy", "building": null, "healthcare": null, "healthca_1": null, "operator_t": "unknown", "capacity_p": null, "addr_full": null, "addr_city": null, "source": null, "name_sw": null, "osm_id": 8074036794.0, "osm_type": "nodes" }, "geometry": { "type": "Point", "coordinates": [ 36.742325625667718, -1.284251399398232 ] } },
{ "type": "Feature", "properties": { "OBJECTID": 49, "name": "Chemist", "name_en": null, "amenity": "pharmacy", "building": null, "healthcare": null, "healthca_1": null, "operator_t": "unknown", "capacity_p": null, "addr_full": null, "addr_city": null, "source": null, "name_sw": null, "osm_id": 8074036749.0, "osm_type": "nodes" }, "geometry": { "type": "Point", "coordinates": [ 36.72654041322528, -1.287943002778671 ] } },
{ "type": "Feature", "properties": { "OBJECTID": 50, "name": "Total community Development Health Care", "name_en": null, "amenity": "hospital", "building": null, "healthcare": "pharmacy", "healthca_1": null, "operator_t": null, "capacity_p": null, "addr_full": null, "addr_city": null, "source": null, "name_sw": null, "osm_id": 8032765487.0, "osm_type": "nodes" }, "geometry": { "type": "Point", "coordinates": [ 36.864289617019836, -1.258955281238389 ] } },
{ "type": "Feature", "properties": { "OBJECTID": 51, "name": "Chemist", "name_en": null, "amenity": "pharmacy", "building": null, "healthcare": null, "healthca_1": null, "operator_t": "unknown", "capacity_p": null, "addr_full": null, "addr_city": null, "source": null, "name_sw": null, "osm_id": 8074036777.000001, "osm_type": "nodes" }, "geometry": { "type": "Point", "coordinates": [ 36.749341730528791, -1.287737602046916 ] } },
{ "type": "Feature", "properties": { "OBJECTID": 52, "name": "Melmarvic", "name_en": null, "amenity": "pharmacy", "building": null, "healthcare": null, "healthca_1": null, "operator_t": "unknown", "capacity_p": null, "addr_full": null, "addr_city": null, "source": null, "name_sw": null, "osm_id": 8074036746.000001, "osm_type": "nodes" }, "geometry": { "type": "Point", "coordinates": [ 36.746805729174113, -1.289985004238517 ] } },
{ "type": "Feature", "properties": { "OBJECTID": 53, "name": "Late Night", "name_en": null, "amenity": "pharmacy", "building": null, "healthcare": null, "healthca_1": null, "operator_t": "unknown", "capacity_p": null, "addr_full": null, "addr_city": null, "source": null, "name_sw": null, "osm_id": 8074036806.0, "osm_type": "nodes" }, "geometry": { "type": "Point", "coordinates": [ 36.726540413633451, -1.287699902243851 ] } },
{ "type": "Feature", "properties": { "OBJECTID": 54, "name": "Chemist", "name_en": null, "amenity": "pharmacy", "building": null, "healthcare": null, "healthca_1": null, "operator_t": "unknown", "capacity_p": null, "addr_full": null, "addr_city": null, "source": null, "name_sw": null, "osm_id": 8074036733.0, "osm_type": "nodes" }, "geometry": { "type": "Point", "coordinates": [ 36.754600635212626, -1.281390498025805 ] } },
{ "type": "Feature", "properties": { "OBJECTID": 55, "name": "Eloc Pharmacy", "name_en": null, "amenity": "pharmacy", "building": null, "healthcare": null, "healthca_1": null, "operator_t": "unknown", "capacity_p": null, "addr_full": null, "addr_city": null, "source": null, "name_sw": null, "osm_id": 8074036735.000001, "osm_type": "nodes" }, "geometry": { "type": "Point", "coordinates": [ 36.753348433519577, -1.297903710486078 ] } },
{ "type": "Feature", "properties": { "OBJECTID": 56, "name": "Agrovet", "name_en": null, "amenity": "pharmacy", "building": null, "healthcare": null, "healthca_1": null, "operator_t": "unknown", "capacity_p": null, "addr_full": null, "addr_city": null, "source": null, "name_sw": null, "osm_id": 8074036782.0, "osm_type": "nodes" }, "geometry": { "type": "Point", "coordinates": [ 36.751102332359963, -1.289996404547574 ] } },
{ "type": "Feature", "properties": { "OBJECTID": 57, "name": "Chemist", "name_en": null, "amenity": "pharmacy", "building": null, "healthcare": null, "healthca_1": null, "operator_t": "unknown", "capacity_p": null, "addr_full": null, "addr_city": null, "source": null, "name_sw": null, "osm_id": 8074036787.0, "osm_type": "nodes" }, "geometry": { "type": "Point", "coordinates": [ 36.750885731842828, -1.282270898285661 ] } },
{ "type": "Feature", "properties": { "OBJECTID": 58, "name": "Ponachem", "name_en": null, "amenity": "pharmacy", "building": null, "healthcare": null, "healthca_1": null, "operator_t": "unknown", "capacity_p": null, "addr_full": null, "addr_city": null, "source": null, "name_sw": null, "osm_id": 8074036780.0, "osm_type": "nodes" }, "geometry": { "type": "Point", "coordinates": [ 36.7507924314748, -1.278303395416659 ] } },
{ "type": "Feature", "properties": { "OBJECTID": 59, "name": null, "name_en": null, "amenity": "pharmacy", "building": null, "healthcare": null, "healthca_1": null, "operator_t": null, "capacity_p": null, "addr_full": null, "addr_city": null, "source": null, "name_sw": null, "osm_id": 1500016847.0, "osm_type": "nodes" }, "geometry": { "type": "Point", "coordinates": [ 36.848476805395826, -1.314816823377882 ] } },
{ "type": "Feature", "properties": { "OBJECTID": 60, "name": "Kam Pharmacy Ltd", "name_en": null, "amenity": "pharmacy", "building": null, "healthcare": "pharmacy", "healthca_1": null, "operator_t": null, "capacity_p": null, "addr_full": null, "addr_city": "Nairobi", "source": null, "name_sw": null, "osm_id": 5540761517.0, "osm_type": "nodes" }, "geometry": { "type": "Point", "coordinates": [ 36.804245272048462, -1.265092085993193 ] } },
{ "type": "Feature", "properties": { "OBJECTID": 61, "name": "Malibu Pharmacy Ltd", "name_en": null, "amenity": "pharmacy", "building": null, "healthcare": "pharmacy", "healthca_1": null, "operator_t": null, "capacity_p": null, "addr_full": null, "addr_city": "Nairobi", "source": null, "name_sw": null, "osm_id": 5555072714.0, "osm_type": "nodes" }, "geometry": { "type": "Point", "coordinates": [ 36.823141586715302, -1.285164801297236 ] } },
{ "type": "Feature", "properties": { "OBJECTID": 62, "name": "Goodlife Westgate", "name_en": null, "amenity": "pharmacy", "building": null, "healthcare": "pharmacy", "healthca_1": null, "operator_t": null, "capacity_p": null, "addr_full": null, "addr_city": "Nairobi", "source": null, "name_sw": null, "osm_id": 5340559317.0, "osm_type": "nodes" }, "geometry": { "type": "Point", "coordinates": [ 36.803480671656793, -1.257218879623798 ] } },
{ "type": "Feature", "properties": { "OBJECTID": 63, "name": "Dawa house", "name_en": null, "amenity": "pharmacy", "building": null, "healthcare": null, "healthca_1": null, "operator_t": null, "capacity_p": null, "addr_full": null, "addr_city": null, "source": null, "name_sw": null, "osm_id": 8021720086.999999, "osm_type": "nodes" }, "geometry": { "type": "Point", "coordinates": [ 36.86192921519207, -1.258415780939426 ] } },
{ "type": "Feature", "properties": { "OBJECTID": 64, "name": "Riders medical centre", "name_en": null, "amenity": "pharmacy", "building": null, "healthcare": null, "healthca_1": null, "operator_t": null, "capacity_p": null, "addr_full": null, "addr_city": null, "source": null, "name_sw": null, "osm_id": 1446059335.0, "osm_type": "nodes" }, "geometry": { "type": "Point", "coordinates": [ 36.875714126163082, -1.30991321940365 ] } },
{ "type": "Feature", "properties": { "OBJECTID": 65, "name": "Chemist", "name_en": null, "amenity": "pharmacy", "building": null, "healthcare": null, "healthca_1": null, "operator_t": null, "capacity_p": null, "addr_full": null, "addr_city": null, "source": null, "name_sw": null, "osm_id": 1446059231.0, "osm_type": "nodes" }, "geometry": { "type": "Point", "coordinates": [ 36.868331220391362, -1.316225024229345 ] } },
{ "type": "Feature", "properties": { "OBJECTID": 66, "name": "Flodo medical clinic", "name_en": null, "amenity": "pharmacy", "building": null, "healthcare": null, "healthca_1": null, "operator_t": null, "capacity_p": null, "addr_full": null, "addr_city": null, "source": null, "name_sw": null, "osm_id": 1446059245.0, "osm_type": "nodes" }, "geometry": { "type": "Point", "coordinates": [ 36.87470852482371, -1.310162619924252 ] } },
{ "type": "Feature", "properties": { "OBJECTID": 67, "name": "clinic", "name_en": null, "amenity": "pharmacy", "building": null, "healthcare": null, "healthca_1": null, "operator_t": null, "capacity_p": null, "addr_full": null, "addr_city": null, "source": null, "name_sw": null, "osm_id": 1446059260.0, "osm_type": "nodes" }, "geometry": { "type": "Point", "coordinates": [ 36.868174419668833, -1.314877222845886 ] } },
{ "type": "Feature", "properties": { "OBJECTID": 68, "name": "Mara health centre", "name_en": null, "amenity": "pharmacy", "building": null, "healthcare": null, "healthca_1": null, "operator_t": null, "capacity_p": null, "addr_full": null, "addr_city": null, "source": null, "name_sw": null, "osm_id": 1432508012.0, "osm_type": "nodes" }, "geometry": { "type": "Point", "coordinates": [ 36.876197725781729, -1.316297524088686 ] } },
{ "type": "Feature", "properties": { "OBJECTID": 69, "name": "P.M.C. medical clinic", "name_en": null, "amenity": "pharmacy", "building": null, "healthcare": null, "healthca_1": null, "operator_t": null, "capacity_p": null, "addr_full": null, "addr_city": null, "source": null, "name_sw": null, "osm_id": 1432508035.0, "osm_type": "nodes" }, "geometry": { "type": "Point", "coordinates": [ 36.875721725976781, -1.314193122711782 ] } },
{ "type": "Feature", "properties": { "OBJECTID": 70, "name": "Col-phrm chemist", "name_en": null, "amenity": "pharmacy", "building": null, "healthcare": null, "healthca_1": null, "operator_t": null, "capacity_p": null, "addr_full": null, "addr_city": null, "source": null, "name_sw": null, "osm_id": 1432507889.0, "osm_type": "nodes" }, "geometry": { "type": "Point", "coordinates": [ 36.876882826367556, -1.316869424824129 ] } },
{ "type": "Feature", "properties": { "OBJECTID": 71, "name": "St. Mathias medical clinic", "name_en": null, "amenity": "pharmacy", "building": null, "healthcare": null, "healthca_1": null, "operator_t": null, "capacity_p": null, "addr_full": null, "addr_city": null, "source": null, "name_sw": null, "osm_id": 1432508057.0, "osm_type": "nodes" }, "geometry": { "type": "Point", "coordinates": [ 36.87583492581642, -1.316231824389686 ] } },
{ "type": "Feature", "properties": { "OBJECTID": 72, "name": "Tumaini comm health service", "name_en": null, "amenity": "pharmacy", "building": null, "healthcare": null, "healthca_1": null, "operator_t": null, "capacity_p": null, "addr_full": null, "addr_city": null, "source": null, "name_sw": null, "osm_id": 1432508063.0, "osm_type": "nodes" }, "geometry": { "type": "Point", "coordinates": [ 36.874938725411177, -1.315573423334434 ] } },
{ "type": "Feature", "properties": { "OBJECTID": 73, "name": "wadani hospital", "name_en": null, "amenity": "pharmacy", "building": null, "healthcare": null, "healthca_1": null, "operator_t": null, "capacity_p": null, "addr_full": null, "addr_city": null, "source": null, "name_sw": null, "osm_id": 1432508108.0, "osm_type": "nodes" }, "geometry": { "type": "Point", "coordinates": [ 36.873430724385393, -1.319027426346376 ] } },
{ "type": "Feature", "properties": { "OBJECTID": 74, "name": "Mukuru Medical Clinic", "name_en": null, "amenity": "hospital", "building": null, "healthcare": null, "healthca_1": null, "operator_t": null, "capacity_p": null, "addr_full": null, "addr_city": null, "source": null, "name_sw": null, "osm_id": 1419101746.0, "osm_type": "nodes" }, "geometry": { "type": "Point", "coordinates": [ 36.887152134347389, -1.322316528487819 ] } },
{ "type": "Feature", "properties": { "OBJECTID": 75, "name": "Scion Health care", "name_en": null, "amenity": "hospital", "building": null, "healthcare": null, "healthca_1": null, "operator_t": null, "capacity_p": null, "addr_full": null, "addr_city": null, "source": null, "name_sw": null, "osm_id": 1419101775.0, "osm_type": "nodes" }, "geometry": { "type": "Point", "coordinates": [ 36.892179637581805, -1.328012333503366 ] } },
{ "type": "Feature", "properties": { "OBJECTID": 76, "name": "Riverside Medical", "name_en": null, "amenity": "pharmacy", "building": null, "healthcare": null, "healthca_1": null, "operator_t": null, "capacity_p": null, "addr_full": null, "addr_city": null, "source": null, "name_sw": null, "osm_id": 914492970.0, "osm_type": "nodes" }, "geometry": { "type": "Point", "coordinates": [ 36.880071029089798, -1.317089424886925 ] } },
{ "type": "Feature", "properties": { "OBJECTID": 77, "name": "St Teresa Medical Clinic", "name_en": null, "amenity": "hospital", "building": null, "healthcare": null, "healthca_1": null, "operator_t": null, "capacity_p": null, "addr_full": null, "addr_city": null, "source": null, "name_sw": null, "osm_id": 1419005001.0, "osm_type": "nodes" }, "geometry": { "type": "Point", "coordinates": [ 36.885895333238416, -1.315328723444331 ] } },
{ "type": "Feature", "properties": { "OBJECTID": 78, "name": "Vision View Medical Services", "name_en": null, "amenity": "pharmacy", "building": null, "healthcare": null, "healthca_1": null, "operator_t": null, "capacity_p": null, "addr_full": null, "addr_city": null, "source": null, "name_sw": null, "osm_id": 1417918727.0, "osm_type": "nodes" }, "geometry": { "type": "Point", "coordinates": [ 36.884523632026507, -1.314012222521582 ] } },
{ "type": "Feature", "properties": { "OBJECTID": 79, "name": "Kingori Medical Centre", "name_en": null, "amenity": "pharmacy", "building": null, "healthcare": null, "healthca_1": null, "operator_t": null, "capacity_p": null, "addr_full": null, "addr_city": null, "source": null, "name_sw": null, "osm_id": 878846165.0, "osm_type": "nodes" }, "geometry": { "type": "Point", "coordinates": [ 36.884416032169426, -1.318532625847015 ] } },
{ "type": "Feature", "properties": { "OBJECTID": 80, "name": "Mediva Chemist", "name_en": null, "amenity": "pharmacy", "building": null, "healthcare": null, "healthca_1": null, "operator_t": null, "capacity_p": null, "addr_full": null, "addr_city": null, "source": null, "name_sw": null, "osm_id": 1417861337.0, "osm_type": "nodes" }, "geometry": { "type": "Point", "coordinates": [ 36.881996530284312, -1.31814662556335 ] } },
{ "type": "Feature", "properties": { "OBJECTID": 81, "name": "Unity Medical Services", "name_en": null, "amenity": "pharmacy", "building": null, "healthcare": null, "healthca_1": null, "operator_t": null, "capacity_p": null, "addr_full": null, "addr_city": null, "source": null, "name_sw": null, "osm_id": 1417918726.0, "osm_type": "nodes" }, "geometry": { "type": "Point", "coordinates": [ 36.883638031432334, -1.315395823329087 ] } },
{ "type": "Feature", "properties": { "OBJECTID": 82, "name": "Imani Health Chemist", "name_en": null, "amenity": "pharmacy", "building": null, "healthcare": null, "healthca_1": null, "operator_t": null, "capacity_p": null, "addr_full": null, "addr_city": null, "source": null, "name_sw": null, "osm_id": 1417861348.0, "osm_type": "nodes" }, "geometry": { "type": "Point", "coordinates": [ 36.882298930329881, -1.318184025561969 ] } },
{ "type": "Feature", "properties": { "OBJECTID": 83, "name": "Glorious Chemist", "name_en": null, "amenity": "pharmacy", "building": null, "healthcare": null, "healthca_1": null, "operator_t": null, "capacity_p": null, "addr_full": null, "addr_city": null, "source": null, "name_sw": null, "osm_id": 8006305785.0, "osm_type": "nodes" }, "geometry": { "type": "Point", "coordinates": [ 36.859680813947364, -1.261685583985189 ] } },
{ "type": "Feature", "properties": { "OBJECTID": 84, "name": "Dan's medical center", "name_en": null, "amenity": "clinic", "building": null, "healthcare": null, "healthca_1": null, "operator_t": "private", "capacity_p": null, "addr_full": null, "addr_city": null, "source": null, "name_sw": null, "osm_id": 4503852990.0, "osm_type": "nodes" }, "geometry": { "type": "Point", "coordinates": [ 36.855332910491164, -1.262650084399642 ] } },
{ "type": "Feature", "properties": { "OBJECTID": 85, "name": "Mathare Edarp", "name_en": null, "amenity": "clinic", "building": null, "healthcare": null, "healthca_1": null, "operator_t": "ngo", "capacity_p": null, "addr_full": null, "addr_city": null, "source": null, "name_sw": null, "osm_id": 7952200605.0, "osm_type": "nodes" }, "geometry": { "type": "Point", "coordinates": [ 36.85684011181516, -1.265632486220639 ] } },
{ "type": "Feature", "properties": { "OBJECTID": 86, "name": "Pona", "name_en": null, "amenity": "clinic", "building": null, "healthcare": null, "healthca_1": null, "operator_t": "private", "capacity_p": null, "addr_full": null, "addr_city": null, "source": null, "name_sw": null, "osm_id": 7952200616.0, "osm_type": "nodes" }, "geometry": { "type": "Point", "coordinates": [ 36.86038911488874, -1.261739783901607 ] } },
{ "type": "Feature", "properties": { "OBJECTID": 87, "name": "Rhodics", "name_en": null, "amenity": "clinic", "building": null, "healthcare": null, "healthca_1": null, "operator_t": "private", "capacity_p": null, "addr_full": null, "addr_city": null, "source": null, "name_sw": null, "osm_id": 7952200618.0, "osm_type": "nodes" }, "geometry": { "type": "Point", "coordinates": [ 36.862304115557542, -1.258326380824807 ] } },
{ "type": "Feature", "properties": { "OBJECTID": 88, "name": "Arawelo Medical Centre Limited", "name_en": null, "amenity": "clinic", "building": null, "healthcare": "hospital", "healthca_1": "gynaecology", "operator_t": null, "capacity_p": null, "addr_full": null, "addr_city": null, "source": null, "name_sw": null, "osm_id": 8415831218.0, "osm_type": "nodes" }, "geometry": { "type": "Point", "coordinates": [ 36.823645186077911, -1.320592027017174 ] } },
{ "type": "Feature", "properties": { "OBJECTID": 89, "name": "Access Afya Medical Clinic", "name_en": null, "amenity": "clinic", "building": null, "healthcare": "clinic", "healthca_1": "clinic;community", "operator_t": null, "capacity_p": null, "addr_full": null, "addr_city": null, "source": null, "name_sw": null, "osm_id": 5594850571.0, "osm_type": "nodes" }, "geometry": { "type": "Point", "coordinates": [ 36.878444827739138, -1.309370218862473 ] } },
{ "type": "Feature", "properties": { "OBJECTID": 90, "name": "Neigbourhood chemist", "name_en": null, "amenity": "pharmacy", "building": null, "healthcare": null, "healthca_1": null, "operator_t": null, "capacity_p": null, "addr_full": null, "addr_city": null, "source": null, "name_sw": null, "osm_id": 1038202691.9999999, "osm_type": "nodes" }, "geometry": { "type": "Point", "coordinates": [ 36.861925915644065, -1.258486781306959 ] } },
{ "type": "Feature", "properties": { "OBJECTID": 91, "name": "The Aga Khan University Hospital", "name_en": null, "amenity": "clinic", "building": null, "healthcare": "clinic", "healthca_1": null, "operator_t": null, "capacity_p": null, "addr_full": null, "addr_city": "Nairobi", "source": null, "name_sw": null, "osm_id": 5555073806.0, "osm_type": "nodes" }, "geometry": { "type": "Point", "coordinates": [ 36.822000485625061, -1.285801101532645 ] } },
{ "type": "Feature", "properties": { "OBJECTID": 92, "name": "Mater Hospital", "name_en": null, "amenity": "clinic", "building": null, "healthcare": "clinic", "healthca_1": null, "operator_t": null, "capacity_p": null, "addr_full": null, "addr_city": "Nairobi", "source": null, "name_sw": null, "osm_id": 5555074074.0, "osm_type": "nodes" }, "geometry": { "type": "Point", "coordinates": [ 36.827282889446316, -1.288002003006547 ] } },
{ "type": "Feature", "properties": { "OBJECTID": 93, "name": "Nairobi Outpatient Centre Ltd", "name_en": null, "amenity": "clinic", "building": null, "healthcare": "clinic", "healthca_1": null, "operator_t": null, "capacity_p": null, "addr_full": null, "addr_city": "Nairobi", "source": null, "name_sw": null, "osm_id": 5552467940.0, "osm_type": "nodes" }, "geometry": { "type": "Point", "coordinates": [ 36.818720582730805, -1.280464797443735 ] } },
{ "type": "Feature", "properties": { "OBJECTID": 94, "name": "Taiba", "name_en": null, "amenity": "clinic", "building": null, "healthcare": "clinic", "healthca_1": "general", "operator_t": null, "capacity_p": null, "addr_full": null, "addr_city": "Nairobi", "source": null, "name_sw": null, "osm_id": 5475093964.0, "osm_type": "nodes" }, "geometry": { "type": "Point", "coordinates": [ 36.830869192515401, -1.275765593470906 ] } },
{ "type": "Feature", "properties": { "OBJECTID": 95, "name": "Rehema chemist", "name_en": null, "amenity": "pharmacy", "building": null, "healthcare": "pharmacy", "healthca_1": null, "operator_t": null, "capacity_p": null, "addr_full": null, "addr_city": null, "source": null, "name_sw": null, "osm_id": 8894604382.0, "osm_type": "nodes" }, "geometry": { "type": "Point", "coordinates": [ 36.86298741607817, -1.313918122098799 ] } },
{ "type": "Feature", "properties": { "OBJECTID": 96, "name": "Korogocho Health Centre", "name_en": null, "amenity": "clinic", "building": null, "healthcare": "clinic", "healthca_1": null, "operator_t": null, "capacity_p": null, "addr_full": null, "addr_city": null, "source": null, "name_sw": null, "osm_id": 8891905581.0, "osm_type": "nodes" }, "geometry": { "type": "Point", "coordinates": [ 36.889187435946333, -1.251728076003092 ] } },
{ "type": "Feature", "properties": { "OBJECTID": 97, "name": "Vission Medical clinic and maternity", "name_en": null, "amenity": "clinic", "building": null, "healthcare": "clinic", "healthca_1": null, "operator_t": null, "capacity_p": null, "addr_full": null, "addr_city": null, "source": null, "name_sw": null, "osm_id": 8891905584.0, "osm_type": "nodes" }, "geometry": { "type": "Point", "coordinates": [ 36.889787436793362, -1.250258074834776 ] } },
{ "type": "Feature", "properties": { "OBJECTID": 98, "name": "Provide International Korogocho", "name_en": null, "amenity": "clinic", "building": null, "healthcare": "clinic", "healthca_1": null, "operator_t": null, "capacity_p": null, "addr_full": null, "addr_city": null, "source": null, "name_sw": null, "osm_id": 8891905585.0, "osm_type": "nodes" }, "geometry": { "type": "Point", "coordinates": [ 36.888487435405203, -1.250288075517558 ] } },
{ "type": "Feature", "properties": { "OBJECTID": 99, "name": "Melihep Medical Clinic", "name_en": null, "amenity": "dentist", "building": null, "healthcare": "dentist", "healthca_1": null, "operator_t": null, "capacity_p": null, "addr_full": null, "addr_city": null, "source": null, "name_sw": null, "osm_id": 8895109583.0, "osm_type": "nodes" }, "geometry": { "type": "Point", "coordinates": [ 36.870387421456691, -1.310718119663049 ] } },
{ "type": "Feature", "properties": { "OBJECTID": 100, "name": "Paradise Medical Center", "name_en": null, "amenity": "dentist", "building": null, "healthcare": "dentist", "healthca_1": null, "operator_t": null, "capacity_p": null, "addr_full": null, "addr_city": null, "source": null, "name_sw": null, "osm_id": 8895109584.0, "osm_type": "nodes" }, "geometry": { "type": "Point", "coordinates": [ 36.870687421855422, -1.310768120433317 ] } },
{ "type": "Feature", "properties": { "OBJECTID": 101, "name": "Family Medical Care Center", "name_en": null, "amenity": "pharmacy", "building": null, "healthcare": "pharmacy", "healthca_1": null, "operator_t": null, "capacity_p": null, "addr_full": null, "addr_city": null, "source": null, "name_sw": null, "osm_id": 8894604381.0, "osm_type": "nodes" }, "geometry": { "type": "Point", "coordinates": [ 36.864387417078433, -1.311928120698832 ] } },
{ "type": "Feature", "properties": { "OBJECTID": 102, "name": "Yaya Chemists Limited", "name_en": null, "amenity": "pharmacy", "building": null, "healthcare": "pharmacy", "healthca_1": null, "operator_t": null, "capacity_p": null, "addr_full": null, "addr_city": "Nairobi", "source": null, "name_sw": null, "osm_id": 5414280550.0, "osm_type": "nodes" }, "geometry": { "type": "Point", "coordinates": [ 36.787968759649324, -1.292918306330023 ] } },
{ "type": "Feature", "properties": { "OBJECTID": 103, "name": "Aga Khan University Hospital Medical Centre", "name_en": null, "amenity": "clinic", "building": null, "healthcare": "clinic", "healthca_1": null, "operator_t": null, "capacity_p": null, "addr_full": null, "addr_city": "Nairobi", "source": null, "name_sw": null, "osm_id": 5334918491.0, "osm_type": "nodes" }, "geometry": { "type": "Point", "coordinates": [ 36.77027824685814, -1.290852804495744 ] } },
{ "type": "Feature", "properties": { "OBJECTID": 104, "name": "Katope Medical Clinic", "name_en": null, "amenity": "pharmacy", "building": null, "healthcare": null, "healthca_1": null, "operator_t": null, "capacity_p": null, "addr_full": null, "addr_city": null, "source": null, "name_sw": null, "osm_id": 878846270.0, "osm_type": "nodes" }, "geometry": { "type": "Point", "coordinates": [ 36.87858872814779, -1.317313124930831 ] } },
{ "type": "Feature", "properties": { "OBJECTID": 105, "name": "access afya clinic", "name_en": null, "amenity": "clinic", "building": null, "healthcare": "clinic", "healthca_1": null, "operator_t": null, "capacity_p": null, "addr_full": null, "addr_city": null, "source": null, "name_sw": null, "osm_id": 3856040557.0, "osm_type": "nodes" }, "geometry": { "type": "Point", "coordinates": [ 36.842780400634375, -1.311021220535703 ] } },
{ "type": "Feature", "properties": { "OBJECTID": 106, "name": "Dr. Samwel (Herbalist)", "name_en": null, "amenity": "*", "building": null, "healthcare": "alternative", "healthca_1": null, "operator_t": null, "capacity_p": null, "addr_full": null, "addr_city": null, "source": null, "name_sw": null, "osm_id": 8891997073.0, "osm_type": "nodes" }, "geometry": { "type": "Point", "coordinates": [ 36.892187438088051, -1.249858074915937 ] } },
{ "type": "Feature", "properties": { "OBJECTID": 107, "name": "Faith healer", "name_en": null, "amenity": "*", "building": null, "healthcare": "alternative", "healthca_1": null, "operator_t": null, "capacity_p": null, "addr_full": null, "addr_city": null, "source": null, "name_sw": null, "osm_id": 8891997081.0, "osm_type": "nodes" }, "geometry": { "type": "Point", "coordinates": [ 36.888987435812446, -1.253728077606291 ] } },
{ "type": "Feature", "properties": { "OBJECTID": 108, "name": "Edarp", "name_en": null, "amenity": "hospital", "building": null, "healthcare": null, "healthca_1": null, "operator_t": "religious", "capacity_p": null, "addr_full": null, "addr_city": null, "source": "KRCS2024", "name_sw": null, "osm_id": 11802137831.0, "osm_type": "nodes" }, "geometry": { "type": "Point", "coordinates": [ 36.855647611040617, -1.265496486173701 ] } },
{ "type": "Feature", "properties": { "OBJECTID": 109, "name": "Aga Khan University Hospital Medical Centre", "name_en": null, "amenity": "clinic", "building": null, "healthcare": "clinic", "healthca_1": null, "operator_t": null, "capacity_p": null, "addr_full": null, "addr_city": "Nairobi", "source": null, "name_sw": null, "osm_id": 5414008483.0, "osm_type": "nodes" }, "geometry": { "type": "Point", "coordinates": [ 36.787693459687169, -1.300928612697305 ] } },
{ "type": "Feature", "properties": { "OBJECTID": 110, "name": "Dinesh Chandaria Medical Centre", "name_en": null, "amenity": "hospital", "building": null, "healthcare": "hospital", "healthca_1": null, "operator_t": null, "capacity_p": null, "addr_full": null, "addr_city": "Nairobi", "source": null, "name_sw": null, "osm_id": 6225467024.0, "osm_type": "nodes" }, "geometry": { "type": "Point", "coordinates": [ 36.811484578012596, -1.264551485486969 ] } },
{ "type": "Feature", "properties": { "OBJECTID": 111, "name": null, "name_en": null, "amenity": "pharmacy", "building": null, "healthcare": "pharmacy", "healthca_1": null, "operator_t": null, "capacity_p": null, "addr_full": null, "addr_city": null, "source": null, "name_sw": null, "osm_id": 12117204297.0, "osm_type": "nodes" }, "geometry": { "type": "Point", "coordinates": [ 36.91511975574393, -1.313353822700513 ] } },
{ "type": "Feature", "properties": { "OBJECTID": 112, "name": "Comprehensive Care Centre", "name_en": null, "amenity": "clinic", "building": null, "healthcare": "clinic", "healthca_1": null, "operator_t": null, "capacity_p": null, "addr_full": null, "addr_city": null, "source": null, "name_sw": null, "osm_id": 5383793350.0, "osm_type": "nodes" }, "geometry": { "type": "Point", "coordinates": [ 36.808291875062103, -1.303548714690417 ] } },
{ "type": "Feature", "properties": { "OBJECTID": 113, "name": "Lords Healthcare Ltd", "name_en": null, "amenity": "pharmacy", "building": null, "healthcare": "pharmacy", "healthca_1": null, "operator_t": null, "capacity_p": null, "addr_full": null, "addr_city": "Nairobi", "source": null, "name_sw": null, "osm_id": 5378551736.0, "osm_type": "nodes" }, "geometry": { "type": "Point", "coordinates": [ 36.816059080939759, -1.292924806761206 ] } },
{ "type": "Feature", "properties": { "OBJECTID": 114, "name": "Dr Harun A. Otieno FACC", "name_en": null, "amenity": "clinic", "building": null, "healthcare": "clinic", "healthca_1": null, "operator_t": null, "capacity_p": null, "addr_full": null, "addr_city": null, "source": null, "name_sw": null, "osm_id": 5340968095.0, "osm_type": "nodes" }, "geometry": { "type": "Point", "coordinates": [ 36.824944887712967, -1.262584983889839 ] } },
{ "type": "Feature", "properties": { "OBJECTID": 115, "name": "Radiant Group of Hospitals Sportsview", "name_en": null, "amenity": "hospital", "building": null, "healthcare": "hospital", "healthca_1": "gynaecology;general", "operator_t": "private", "capacity_p": null, "addr_full": null, "addr_city": null, "source": "local knowledge", "name_sw": null, "osm_id": 10600747318.0, "osm_type": "nodes" }, "geometry": { "type": "Point", "coordinates": [ 36.912530454118254, -1.222539754791238 ] } },
{ "type": "Feature", "properties": { "OBJECTID": 116, "name": "Health Gate Hospital", "name_en": null, "amenity": "hospital", "building": null, "healthcare": "hospital", "healthca_1": "gynaecology;paediatrics;radiology", "operator_t": "private", "capacity_p": null, "addr_full": null, "addr_city": "Nairobi", "source": null, "name_sw": null, "osm_id": 8429563116.999999, "osm_type": "nodes" }, "geometry": { "type": "Point", "coordinates": [ 36.84609820317938, -1.279677896757956 ] } },
{ "type": "Feature", "properties": { "OBJECTID": 117, "name": "lema dispensing chemist", "name_en": null, "amenity": "hospital", "building": null, "healthcare": null, "healthca_1": null, "operator_t": null, "capacity_p": null, "addr_full": null, "addr_city": null, "source": null, "name_sw": null, "osm_id": 3723146927.0000005, "osm_type": "nodes" }, "geometry": { "type": "Point", "coordinates": [ 36.887228934885137, -1.254573578211183 ] } },
{ "type": "Feature", "properties": { "OBJECTID": 118, "name": "Karen Health Center", "name_en": null, "amenity": "hospital", "building": null, "healthcare": "hospital", "healthca_1": null, "operator_t": null, "capacity_p": null, "addr_full": null, "addr_city": "Nairobi", "source": null, "name_sw": null, "osm_id": 12142202587.0, "osm_type": "nodes" }, "geometry": { "type": "Point", "coordinates": [ 36.70588089760156, -1.320928926522926 ] } },
{ "type": "Feature", "properties": { "OBJECTID": 119, "name": "Ngaira Health Centre", "name_en": null, "amenity": "clinic", "building": null, "healthcare": "clinic", "healthca_1": null, "operator_t": null, "capacity_p": null, "addr_full": null, "addr_city": "Nairobi", "source": null, "name_sw": null, "osm_id": 5555704220.0, "osm_type": "nodes" }, "geometry": { "type": "Point", "coordinates": [ 36.831310892330727, -1.27358479190535 ] } },
{ "type": "Feature", "properties": { "OBJECTID": 120, "name": "M. P. Shah Hospital", "name_en": null, "amenity": "hospital", "building": null, "healthcare": "hospital", "healthca_1": null, "operator_t": null, "capacity_p": null, "addr_full": null, "addr_city": null, "source": null, "name_sw": null, "osm_id": 275554473.0, "osm_type": "nodes" }, "geometry": { "type": "Point", "coordinates": [ 36.81195577786626, -1.263802784636419 ] } },
{ "type": "Feature", "properties": { "OBJECTID": 121, "name": "State House Clinic", "name_en": null, "amenity": "clinic", "building": null, "healthcare": "clinic", "healthca_1": "general", "operator_t": "public", "capacity_p": null, "addr_full": null, "addr_city": null, "source": "local knowledge", "name_sw": null, "osm_id": 11684804711.0, "osm_type": "nodes" }, "geometry": { "type": "Point", "coordinates": [ 36.805021372586175, -1.278476796097249 ] } },
{ "type": "Feature", "properties": { "OBJECTID": 122, "name": "GEOJAN CHEMIST", "name_en": null, "amenity": "hospital", "building": null, "healthcare": null, "healthca_1": null, "operator_t": "private", "capacity_p": null, "addr_full": null, "addr_city": null, "source": null, "name_sw": null, "osm_id": 2373149870.0, "osm_type": "nodes" }, "geometry": { "type": "Point", "coordinates": [ 36.858949713355067, -1.254285877685986 ] } },
{ "type": "Feature", "properties": { "OBJECTID": 123, "name": "Baraka chemist", "name_en": null, "amenity": "pharmacy", "building": null, "healthcare": null, "healthca_1": null, "operator_t": "private", "capacity_p": null, "addr_full": null, "addr_city": null, "source": null, "name_sw": null, "osm_id": 2379875645.0, "osm_type": "nodes" }, "geometry": { "type": "Point", "coordinates": [ 36.855285910385874, -1.262065383465244 ] } },
{ "type": "Feature", "properties": { "OBJECTID": 124, "name": "The Aga Khan Medical Centre Tmall", "name_en": null, "amenity": "hospital", "building": null, "healthcare": "hospital", "healthca_1": null, "operator_t": null, "capacity_p": null, "addr_full": null, "addr_city": "Nairobi", "source": null, "name_sw": null, "osm_id": 5372450531.0, "osm_type": "nodes" }, "geometry": { "type": "Point", "coordinates": [ 36.81687478137642, -1.312189020749838 ] } },
{ "type": "Feature", "properties": { "OBJECTID": 125, "name": "Ebenezer Clinic and Chemist", "name_en": null, "amenity": "clinic", "building": null, "healthcare": null, "healthca_1": null, "operator_t": null, "capacity_p": null, "addr_full": null, "addr_city": null, "source": null, "name_sw": null, "osm_id": 2405823273.0, "osm_type": "nodes" }, "geometry": { "type": "Point", "coordinates": [ 36.883162531634937, -1.248734074036782 ] } },
{ "type": "Feature", "properties": { "OBJECTID": 126, "name": "Hope Medical Clinic", "name_en": null, "amenity": "clinic", "building": null, "healthcare": null, "healthca_1": null, "operator_t": null, "capacity_p": null, "addr_full": null, "addr_city": null, "source": null, "name_sw": null, "osm_id": 2405823283.0, "osm_type": "nodes" }, "geometry": { "type": "Point", "coordinates": [ 36.885639633401993, -1.24788537295336 ] } },
{ "type": "Feature", "properties": { "OBJECTID": 127, "name": "Kemrif", "name_en": null, "amenity": "hospital", "building": null, "healthcare": null, "healthca_1": null, "operator_t": null, "capacity_p": null, "addr_full": null, "addr_city": null, "source": null, "name_sw": null, "osm_id": 2405836256.0, "osm_type": "nodes" }, "geometry": { "type": "Point", "coordinates": [ 36.893445139138407, -1.241982968877383 ] } },
{ "type": "Feature", "properties": { "OBJECTID": 128, "name": "Pharmaplus", "name_en": null, "amenity": "pharmacy", "building": null, "healthcare": "pharmacy", "healthca_1": null, "operator_t": null, "capacity_p": null, "addr_full": null, "addr_city": null, "source": null, "name_sw": null, "osm_id": 12157721102.0, "osm_type": "nodes" }, "geometry": { "type": "Point", "coordinates": [ 36.816795381869092, -1.281654698366451 ] } },
{ "type": "Feature", "properties": { "OBJECTID": 129, "name": "Blissgvs Health Care(Pipeline)", "name_en": null, "amenity": "clinic", "building": null, "healthcare": "clinic", "healthca_1": null, "operator_t": "private", "capacity_p": null, "addr_full": null, "addr_city": null, "source": null, "name_sw": null, "osm_id": 8415996416.999999, "osm_type": "nodes" }, "geometry": { "type": "Point", "coordinates": [ 36.894318139612928, -1.317862025617377 ] } },
{ "type": "Feature", "properties": { "OBJECTID": 130, "name": "Apollo Dental Clinic", "name_en": null, "amenity": "dentist", "building": null, "healthcare": "dentist", "healthca_1": "dentist", "operator_t": null, "capacity_p": null, "addr_full": null, "addr_city": "Nairobi", "source": null, "name_sw": null, "osm_id": 12289884245.999998, "osm_type": "nodes" }, "geometry": { "type": "Point", "coordinates": [ 36.785736158547678, -1.249876374066832 ] } },
{ "type": "Feature", "properties": { "OBJECTID": 131, "name": "Fairview Medical Centre", "name_en": null, "amenity": "clinic", "building": null, "healthcare": null, "healthca_1": null, "operator_t": "private", "capacity_p": null, "addr_full": null, "addr_city": null, "source": null, "name_sw": null, "osm_id": 8047604830.000001, "osm_type": "nodes" }, "geometry": { "type": "Point", "coordinates": [ 36.748309030159909, -1.288094802697637 ] } },
{ "type": "Feature", "properties": { "OBJECTID": 132, "name": "Kenishi Medical Clinic", "name_en": null, "amenity": "clinic", "building": null, "healthcare": null, "healthca_1": null, "operator_t": "private", "capacity_p": null, "addr_full": null, "addr_city": null, "source": null, "name_sw": null, "osm_id": 8047604832.000001, "osm_type": "nodes" }, "geometry": { "type": "Point", "coordinates": [ 36.745415628050935, -1.286171401568403 ] } },
{ "type": "Feature", "properties": { "OBJECTID": 133, "name": "Margjallean Pharmaceuticals", "name_en": null, "amenity": "pharmacy", "building": null, "healthcare": null, "healthca_1": null, "operator_t": "private", "capacity_p": null, "addr_full": null, "addr_city": null, "source": null, "name_sw": null, "osm_id": 8047604833.0, "osm_type": "nodes" }, "geometry": { "type": "Point", "coordinates": [ 36.745305628188497, -1.286136401382239 ] } },
{ "type": "Feature", "properties": { "OBJECTID": 134, "name": "Fourty Six Medical Center", "name_en": null, "amenity": "clinic", "building": null, "healthcare": null, "healthca_1": null, "operator_t": "private", "capacity_p": null, "addr_full": null, "addr_city": null, "source": null, "name_sw": null, "osm_id": 8047604833.999999, "osm_type": "nodes" }, "geometry": { "type": "Point", "coordinates": [ 36.745237327930944, -1.286158101505906 ] } },
{ "type": "Feature", "properties": { "OBJECTID": 135, "name": "Riruta Health Centre", "name_en": null, "amenity": "clinic", "building": null, "healthcare": null, "healthca_1": null, "operator_t": "county_government", "capacity_p": null, "addr_full": null, "addr_city": null, "source": null, "name_sw": null, "osm_id": 8047604835.0, "osm_type": "nodes" }, "geometry": { "type": "Point", "coordinates": [ 36.741285624340684, -1.286661401929825 ] } },
{ "type": "Feature", "properties": { "OBJECTID": 136, "name": "Elmaphue Medical and Dental Clinic", "name_en": null, "amenity": "dentist", "building": null, "healthcare": null, "healthca_1": null, "operator_t": "private", "capacity_p": null, "addr_full": null, "addr_city": null, "source": null, "name_sw": null, "osm_id": 8047604838.0, "osm_type": "nodes" }, "geometry": { "type": "Point", "coordinates": [ 36.742035625233193, -1.284403099892413 ] } },
{ "type": "Feature", "properties": { "OBJECTID": 137, "name": "Elmaphus Medical and Dental Clinic", "name_en": null, "amenity": "dentist", "building": null, "healthcare": null, "healthca_1": null, "operator_t": "private", "capacity_p": null, "addr_full": null, "addr_city": null, "source": null, "name_sw": null, "osm_id": 8047604839.0, "osm_type": "nodes" }, "geometry": { "type": "Point", "coordinates": [ 36.742234025376312, -1.284544799708267 ] } },
{ "type": "Feature", "properties": { "OBJECTID": 138, "name": "Gg", "name_en": null, "amenity": "pharmacy", "building": null, "healthcare": null, "healthca_1": null, "operator_t": "unknown", "capacity_p": null, "addr_full": null, "addr_city": null, "source": null, "name_sw": null, "osm_id": 8074036803.0, "osm_type": "nodes" }, "geometry": { "type": "Point", "coordinates": [ 36.748398030208371, -1.291732405613824 ] } },
{ "type": "Feature", "properties": { "OBJECTID": 139, "name": "Jewish Path Laboratory Ultrasound", "name_en": null, "amenity": null, "building": null, "healthcare": "laboratory", "healthca_1": null, "operator_t": "ngo_international", "capacity_p": null, "addr_full": null, "addr_city": null, "source": null, "name_sw": null, "osm_id": 8047604837.0, "osm_type": "nodes" }, "geometry": { "type": "Point", "coordinates": [ 36.74124902444381, -1.286778101996409 ] } },
{ "type": "Feature", "properties": { "OBJECTID": 140, "name": "Livewell Pharmacy & Cosmetics", "name_en": null, "amenity": "pharmacy", "building": null, "healthcare": "pharmacy", "healthca_1": null, "operator_t": null, "capacity_p": null, "addr_full": null, "addr_city": "Mirema", "source": null, "name_sw": null, "osm_id": 8210508750.0, "osm_type": "nodes" }, "geometry": { "type": "Point", "coordinates": [ 36.88603843421722, -1.210588445690328 ] } },
{ "type": "Feature", "properties": { "OBJECTID": 141, "name": "Bliss Medical Center Pipeline", "name_en": null, "amenity": "hospital", "building": null, "healthcare": "hospital", "healthca_1": null, "operator_t": null, "capacity_p": null, "addr_full": null, "addr_city": null, "source": null, "name_sw": null, "osm_id": 8168754213.0, "osm_type": "nodes" }, "geometry": { "type": "Point", "coordinates": [ 36.89650824137486, -1.31794012532251 ] } },
{ "type": "Feature", "properties": { "OBJECTID": 142, "name": "Paradise Medical Center", "name_en": null, "amenity": "pharmacy", "building": null, "healthcare": "pharmacy", "healthca_1": null, "operator_t": null, "capacity_p": null, "addr_full": null, "addr_city": null, "source": null, "name_sw": null, "osm_id": 8894604388.0, "osm_type": "nodes" }, "geometry": { "type": "Point", "coordinates": [ 36.870687421855422, -1.310768120433317 ] } },
{ "type": "Feature", "properties": { "OBJECTID": 143, "name": "Ram Pharmaceuticals Ltd", "name_en": null, "amenity": "pharmacy", "building": null, "healthcare": "pharmacy", "healthca_1": null, "operator_t": null, "capacity_p": null, "addr_full": null, "addr_city": "Nairobi", "source": null, "name_sw": null, "osm_id": 5552269195.0, "osm_type": "nodes" }, "geometry": { "type": "Point", "coordinates": [ 36.806362674192052, -1.265341885786552 ] } },
{ "type": "Feature", "properties": { "OBJECTID": 144, "name": "quintons pharmacy", "name_en": null, "amenity": "pharmacy", "building": null, "healthcare": "pharmacy", "healthca_1": null, "operator_t": null, "capacity_p": null, "addr_full": null, "addr_city": null, "source": null, "name_sw": null, "osm_id": 12243686392.0, "osm_type": "nodes" }, "geometry": { "type": "Point", "coordinates": [ 36.818584583156223, -1.25814058038769 ] } },
{ "type": "Feature", "properties": { "OBJECTID": 145, "name": "Best Health Care Community Services", "name_en": null, "amenity": "clinic", "building": null, "healthcare": "clinic", "healthca_1": null, "operator_t": "private", "capacity_p": null, "addr_full": null, "addr_city": null, "source": null, "name_sw": null, "osm_id": 8416309117.0, "osm_type": "nodes" }, "geometry": { "type": "Point", "coordinates": [ 36.986884409523192, -1.276089494768017 ] } },
{ "type": "Feature", "properties": { "OBJECTID": 146, "name": "Kanyongo Rufus", "name_en": null, "amenity": "dentist", "building": null, "healthcare": "dentist", "healthca_1": null, "operator_t": null, "capacity_p": null, "addr_full": null, "addr_city": "Nairobi", "source": null, "name_sw": null, "osm_id": 5383793233.0, "osm_type": "nodes" }, "geometry": { "type": "Point", "coordinates": [ 36.806300673937223, -1.292899006455374 ] } },
{ "type": "Feature", "properties": { "OBJECTID": 147, "name": "Faith healer", "name_en": null, "amenity": "*", "building": null, "healthcare": "alternative", "healthca_1": null, "operator_t": null, "capacity_p": null, "addr_full": null, "addr_city": null, "source": null, "name_sw": null, "osm_id": 8891997074.0, "osm_type": "nodes" }, "geometry": { "type": "Point", "coordinates": [ 36.892587438675875, -1.251308075529613 ] } },
{ "type": "Feature", "properties": { "OBJECTID": 148, "name": "Equity Afia Biashara Street", "name_en": null, "amenity": "clinic", "building": null, "healthcare": "clinic", "healthca_1": "radiology", "operator_t": "private", "capacity_p": null, "addr_full": null, "addr_city": null, "source": null, "name_sw": null, "osm_id": 8418135317.000001, "osm_type": "nodes" }, "geometry": { "type": "Point", "coordinates": [ 36.817855782642965, -1.282161498545485 ] } },
{ "type": "Feature", "properties": { "OBJECTID": 149, "name": "Gertrude's Children's Hospital", "name_en": null, "amenity": "hospital", "building": null, "healthcare": "hospital", "healthca_1": null, "operator_t": null, "capacity_p": null, "addr_full": null, "addr_city": null, "source": null, "name_sw": null, "osm_id": 7993248585.0, "osm_type": "nodes" }, "geometry": { "type": "Point", "coordinates": [ 36.832217993238345, -1.256168979399574 ] } },
{ "type": "Feature", "properties": { "OBJECTID": 150, "name": "Careville Wellness Centre", "name_en": null, "amenity": "clinic", "building": null, "healthcare": "clinic", "healthca_1": null, "operator_t": null, "capacity_p": null, "addr_full": null, "addr_city": "Nairobi", "source": null, "name_sw": null, "osm_id": 5401775775.0, "osm_type": "nodes" }, "geometry": { "type": "Point", "coordinates": [ 36.79973936869974, -1.29898991144563 ] } },
{ "type": "Feature", "properties": { "OBJECTID": 151, "name": "Laser Stone & Endoscopy Centre", "name_en": null, "amenity": "clinic", "building": null, "healthcare": "clinic", "healthca_1": null, "operator_t": null, "capacity_p": null, "addr_full": null, "addr_city": "Nairobi", "source": null, "name_sw": null, "osm_id": 5383793266.0, "osm_type": "nodes" }, "geometry": { "type": "Point", "coordinates": [ 36.806639673551338, -1.294599307692299 ] } },
{ "type": "Feature", "properties": { "OBJECTID": 152, "name": "ST. FRANCIS HEALTH SERVICES", "name_en": null, "amenity": "hospital", "building": null, "healthcare": null, "healthca_1": null, "operator_t": "private", "capacity_p": null, "addr_full": null, "addr_city": null, "source": null, "name_sw": null, "osm_id": 2389187318.0, "osm_type": "nodes" }, "geometry": { "type": "Point", "coordinates": [ 36.859155313268694, -1.25489007855957 ] } },
{ "type": "Feature", "properties": { "OBJECTID": 153, "name": "Chaire Chemist", "name_en": null, "amenity": "pharmacy", "building": null, "healthcare": null, "healthca_1": null, "operator_t": "private", "capacity_p": null, "addr_full": null, "addr_city": null, "source": null, "name_sw": null, "osm_id": 4502112947.0, "osm_type": "nodes" }, "geometry": { "type": "Point", "coordinates": [ 36.855663210768185, -1.265358886530708 ] } },
{ "type": "Feature", "properties": { "OBJECTID": 154, "name": "St. Mark Mediacal clinic", "name_en": null, "amenity": "pharmacy", "building": null, "healthcare": null, "healthca_1": null, "operator_t": null, "capacity_p": null, "addr_full": null, "addr_city": null, "source": null, "name_sw": null, "osm_id": 1432508056.0, "osm_type": "nodes" }, "geometry": { "type": "Point", "coordinates": [ 36.875506725843501, -1.316023124375607 ] } },
{ "type": "Feature", "properties": { "OBJECTID": 155, "name": "Dental Clinic", "name_en": null, "amenity": "dentist", "building": null, "healthcare": null, "healthca_1": null, "operator_t": null, "capacity_p": null, "addr_full": null, "addr_city": null, "source": null, "name_sw": null, "osm_id": 1999910116.0, "osm_type": "nodes" }, "geometry": { "type": "Point", "coordinates": [ 36.848950705292147, -1.312844321213219 ] } },
{ "type": "Feature", "properties": { "OBJECTID": 156, "name": "Daine pharmacare", "name_en": null, "amenity": "pharmacy", "building": null, "healthcare": null, "healthca_1": null, "operator_t": null, "capacity_p": null, "addr_full": null, "addr_city": null, "source": null, "name_sw": null, "osm_id": 3856215862.0, "osm_type": "nodes" }, "geometry": { "type": "Point", "coordinates": [ 36.848117805200872, -1.314502322643971 ] } },
{ "type": "Feature", "properties": { "OBJECTID": 157, "name": "Trust and Rejoice Medical Clinic", "name_en": null, "amenity": "pharmacy", "building": null, "healthcare": null, "healthca_1": null, "operator_t": null, "capacity_p": null, "addr_full": null, "addr_city": null, "source": null, "name_sw": null, "osm_id": 1500016821.0, "osm_type": "nodes" }, "geometry": { "type": "Point", "coordinates": [ 36.845481102814837, -1.313106521982378 ] } },
{ "type": "Feature", "properties": { "OBJECTID": 158, "name": "Pioneer Medical Clinic", "name_en": null, "amenity": "clinic", "building": null, "healthcare": null, "healthca_1": null, "operator_t": null, "capacity_p": null, "addr_full": null, "addr_city": null, "source": null, "name_sw": null, "osm_id": 11005644205.0, "osm_type": "nodes" }, "geometry": { "type": "Point", "coordinates": [ 36.973163899332057, -1.288268704063926 ] } },
{ "type": "Feature", "properties": { "OBJECTID": 159, "name": "Shemile", "name_en": null, "amenity": "pharmacy", "building": null, "healthcare": null, "healthca_1": null, "operator_t": null, "capacity_p": null, "addr_full": null, "addr_city": null, "source": null, "name_sw": null, "osm_id": 8032765484.999999, "osm_type": "nodes" }, "geometry": { "type": "Point", "coordinates": [ 36.859309413982544, -1.26176398372125 ] } },
{ "type": "Feature", "properties": { "OBJECTID": 160, "name": "Venus chemist", "name_en": null, "amenity": "pharmacy", "building": null, "healthcare": null, "healthca_1": null, "operator_t": null, "capacity_p": null, "addr_full": null, "addr_city": null, "source": null, "name_sw": null, "osm_id": 8021829888.999999, "osm_type": "nodes" }, "geometry": { "type": "Point", "coordinates": [ 36.86126801543849, -1.263330585073667 ] } },
{ "type": "Feature", "properties": { "OBJECTID": 161, "name": "Maisha clinic", "name_en": null, "amenity": "pharmacy", "building": null, "healthcare": null, "healthca_1": null, "operator_t": null, "capacity_p": null, "addr_full": null, "addr_city": null, "source": null, "name_sw": null, "osm_id": 1038103805.0, "osm_type": "nodes" }, "geometry": { "type": "Point", "coordinates": [ 36.860175813924144, -1.262798184774888 ] } },
{ "type": "Feature", "properties": { "OBJECTID": 162, "name": "Vision Health Care", "name_en": null, "amenity": "clinic", "building": null, "healthcare": null, "healthca_1": null, "operator_t": null, "capacity_p": null, "addr_full": null, "addr_city": null, "source": null, "name_sw": null, "osm_id": 8021852685.0, "osm_type": "nodes" }, "geometry": { "type": "Point", "coordinates": [ 36.861584515773082, -1.26315898475418 ] } },
{ "type": "Feature", "properties": { "OBJECTID": 163, "name": "Core", "name_en": null, "amenity": "clinic", "building": null, "healthcare": null, "healthca_1": null, "operator_t": "private", "capacity_p": null, "addr_full": null, "addr_city": null, "source": null, "name_sw": null, "osm_id": 7952200617.000001, "osm_type": "nodes" }, "geometry": { "type": "Point", "coordinates": [ 36.859324114000025, -1.261866383528514 ] } },
{ "type": "Feature", "properties": { "OBJECTID": 164, "name": "Alphamed clinic", "name_en": null, "amenity": "clinic", "building": null, "healthcare": null, "healthca_1": null, "operator_t": null, "capacity_p": null, "addr_full": null, "addr_city": null, "source": null, "name_sw": null, "osm_id": 8047361386.0, "osm_type": "nodes" }, "geometry": { "type": "Point", "coordinates": [ 36.855191810204481, -1.262195384275087 ] } },
{ "type": "Feature", "properties": { "OBJECTID": 165, "name": "Aphamed", "name_en": null, "amenity": "clinic", "building": null, "healthcare": null, "healthca_1": null, "operator_t": null, "capacity_p": null, "addr_full": null, "addr_city": null, "source": null, "name_sw": null, "osm_id": 8047365585.0, "osm_type": "nodes" }, "geometry": { "type": "Point", "coordinates": [ 36.855219510235514, -1.262531983954737 ] } },
{ "type": "Feature", "properties": { "OBJECTID": 166, "name": "Ederp Mathare 3A", "name_en": null, "amenity": "doctors", "building": null, "healthcare": "doctor", "healthca_1": null, "operator_t": "religious", "capacity_p": null, "addr_full": null, "addr_city": null, "source": null, "name_sw": null, "osm_id": 4502112948.0, "osm_type": "nodes" }, "geometry": { "type": "Point", "coordinates": [ 36.855470310651327, -1.265220286492487 ] } },
{ "type": "Feature", "properties": { "OBJECTID": 167, "name": "By Grace Chemist", "name_en": null, "amenity": "pharmacy", "building": null, "healthcare": "pharmacy", "healthca_1": null, "operator_t": null, "capacity_p": null, "addr_full": null, "addr_city": null, "source": null, "name_sw": null, "osm_id": 8006210385.0, "osm_type": "nodes" }, "geometry": { "type": "Point", "coordinates": [ 36.856467811899115, -1.261917883434693 ] } },
{ "type": "Feature", "properties": { "OBJECTID": 168, "name": "Dr Lang'o Medical clinic", "name_en": null, "amenity": "clinic", "building": null, "healthcare": "clinic", "healthca_1": "paediatrics", "operator_t": "private", "capacity_p": null, "addr_full": null, "addr_city": null, "source": null, "name_sw": null, "osm_id": 8415996418.0, "osm_type": "nodes" }, "geometry": { "type": "Point", "coordinates": [ 36.784724457415059, -1.289306704218843 ] } },
{ "type": "Feature", "properties": { "OBJECTID": 169, "name": "Goodlife Shell Karen", "name_en": null, "amenity": "pharmacy", "building": null, "healthcare": "pharmacy", "healthca_1": null, "operator_t": null, "capacity_p": null, "addr_full": null, "addr_city": null, "source": null, "name_sw": null, "osm_id": 5360778411.0, "osm_type": "nodes" }, "geometry": { "type": "Point", "coordinates": [ 36.708386599471908, -1.322607628428082 ] } },
{ "type": "Feature", "properties": { "OBJECTID": 170, "name": "Lunga Lunga Health Center", "name_en": null, "amenity": "clinic", "building": null, "healthcare": "clinic", "healthca_1": null, "operator_t": null, "capacity_p": null, "addr_full": null, "addr_city": null, "source": null, "name_sw": null, "osm_id": 8974004103.0, "osm_type": "nodes" }, "geometry": { "type": "Point", "coordinates": [ 36.86239521604287, -1.310609120057323 ] } },
{ "type": "Feature", "properties": { "OBJECTID": 171, "name": "Kingstone Clinic", "name_en": null, "amenity": "pharmacy", "building": null, "healthcare": "pharmacy", "healthca_1": null, "operator_t": null, "capacity_p": null, "addr_full": null, "addr_city": null, "source": null, "name_sw": null, "osm_id": 8894604379.0, "osm_type": "nodes" }, "geometry": { "type": "Point", "coordinates": [ 36.864287416783917, -1.31248812139614 ] } },
{ "type": "Feature", "properties": { "OBJECTID": 172, "name": "Getrude Embakasi Clinic", "name_en": null, "amenity": "clinic", "building": null, "healthcare": "hospital", "healthca_1": null, "operator_t": null, "capacity_p": null, "addr_full": null, "addr_city": null, "source": null, "name_sw": null, "osm_id": 8420896917.000001, "osm_type": "nodes" }, "geometry": { "type": "Point", "coordinates": [ 36.887101833768476, -1.330120734939922 ] } },
{ "type": "Feature", "properties": { "OBJECTID": 173, "name": "Avenue Health Care Embakasi", "name_en": null, "amenity": "clinic", "building": null, "healthcare": "clinic", "healthca_1": null, "operator_t": null, "capacity_p": null, "addr_full": null, "addr_city": null, "source": null, "name_sw": null, "osm_id": 8415831020.999999, "osm_type": "nodes" }, "geometry": { "type": "Point", "coordinates": [ 36.889550636274961, -1.328181633566446 ] } },
{ "type": "Feature", "properties": { "OBJECTID": 174, "name": "Nairobi Hospital Clinic", "name_en": null, "amenity": "clinic", "building": null, "healthcare": "clinic", "healthca_1": null, "operator_t": null, "capacity_p": null, "addr_full": null, "addr_city": "Nairobi", "source": null, "name_sw": null, "osm_id": 6208216882.0, "osm_type": "nodes" }, "geometry": { "type": "Point", "coordinates": [ 36.890966237169096, -1.32896133378791 ] } },
{ "type": "Feature", "properties": { "OBJECTID": 175, "name": "Koki Medical Clinic", "name_en": null, "amenity": "clinic", "building": null, "healthcare": "clinic", "healthca_1": null, "operator_t": "private", "capacity_p": null, "addr_full": null, "addr_city": null, "source": null, "name_sw": null, "osm_id": 8429553516.999999, "osm_type": "nodes" }, "geometry": { "type": "Point", "coordinates": [ 36.920072859137946, -1.267892288434315 ] } },
{ "type": "Feature", "properties": { "OBJECTID": 176, "name": "mwangaza clinic", "name_en": null, "amenity": "clinic", "building": null, "healthcare": "clinic", "healthca_1": null, "operator_t": null, "capacity_p": null, "addr_full": null, "addr_city": null, "source": null, "name_sw": null, "osm_id": 10780885575.0, "osm_type": "nodes" }, "geometry": { "type": "Point", "coordinates": [ 36.78462625755251, -1.313066821798094 ] } },
{ "type": "Feature", "properties": { "OBJECTID": 177, "name": "shofco", "name_en": null, "amenity": "hospital", "building": null, "healthcare": "hospital", "healthca_1": null, "operator_t": null, "capacity_p": null, "addr_full": null, "addr_city": null, "source": null, "name_sw": null, "osm_id": 10780953118.0, "osm_type": "nodes" }, "geometry": { "type": "Point", "coordinates": [ 36.786478058955431, -1.309705618619212 ] } },
{ "type": "Feature", "properties": { "OBJECTID": 178, "name": "JN Chemist and Cosmetic", "name_en": null, "amenity": "pharmacy", "building": null, "healthcare": "pharmacy", "healthca_1": null, "operator_t": null, "capacity_p": null, "addr_full": null, "addr_city": null, "source": null, "name_sw": null, "osm_id": 8894604377.0, "osm_type": "nodes" }, "geometry": { "type": "Point", "coordinates": [ 36.863987416535942, -1.311008120673016 ] } },
{ "type": "Feature", "properties": { "OBJECTID": 179, "name": "Melihep Medical Clinic", "name_en": null, "amenity": "pharmacy", "building": null, "healthcare": "pharmacy", "healthca_1": null, "operator_t": null, "capacity_p": null, "addr_full": null, "addr_city": null, "source": null, "name_sw": null, "osm_id": 8894604387.0, "osm_type": "nodes" }, "geometry": { "type": "Point", "coordinates": [ 36.870387421456691, -1.310718119663049 ] } },
{ "type": "Feature", "properties": { "OBJECTID": 180, "name": "Aga Khan University Hospital - (Greenspan Mall Clinic)", "name_en": null, "amenity": "clinic", "building": null, "healthcare": "clinic", "healthca_1": null, "operator_t": "private", "capacity_p": null, "addr_full": null, "addr_city": null, "source": null, "name_sw": null, "osm_id": 8415831221.0, "osm_type": "nodes" }, "geometry": { "type": "Point", "coordinates": [ 36.901120844880936, -1.288844103881727 ] } },
{ "type": "Feature", "properties": { "OBJECTID": 181, "name": "Kware Dispensary", "name_en": null, "amenity": "clinic", "building": null, "healthcare": "clinic", "healthca_1": null, "operator_t": "government", "capacity_p": null, "addr_full": null, "addr_city": null, "source": null, "name_sw": null, "osm_id": 8429588416.999999, "osm_type": "nodes" }, "geometry": { "type": "Point", "coordinates": [ 36.90137384508435, -1.297902411088417 ] } },
{ "type": "Feature", "properties": { "OBJECTID": 182, "name": "Afya Medical Clinic", "name_en": null, "amenity": "pharmacy", "building": null, "healthcare": null, "healthca_1": null, "operator_t": null, "capacity_p": null, "addr_full": null, "addr_city": null, "source": null, "name_sw": null, "osm_id": 3856130358.0, "osm_type": "nodes" }, "geometry": { "type": "Point", "coordinates": [ 36.841117500033704, -1.306912117017763 ] } },
{ "type": "Feature", "properties": { "OBJECTID": 183, "name": "chemist", "name_en": null, "amenity": "pharmacy", "building": null, "healthcare": null, "healthca_1": null, "operator_t": null, "capacity_p": null, "addr_full": null, "addr_city": null, "source": null, "name_sw": null, "osm_id": 1483304308.0, "osm_type": "nodes" }, "geometry": { "type": "Point", "coordinates": [ 36.839010198191914, -1.307354617533159 ] } },
{ "type": "Feature", "properties": { "OBJECTID": 184, "name": "Boodad Communicatiion Lifeguard Chemist", "name_en": null, "amenity": "pharmacy", "building": null, "healthcare": null, "healthca_1": null, "operator_t": "private", "capacity_p": null, "addr_full": null, "addr_city": null, "source": null, "name_sw": null, "osm_id": 1103092401.0, "osm_type": "nodes" }, "geometry": { "type": "Point", "coordinates": [ 36.861555115042663, -1.263164084854253 ] } },
{ "type": "Feature", "properties": { "OBJECTID": 185, "name": "Undugu medical clinic", "name_en": null, "amenity": "clinic", "building": null, "healthcare": null, "healthca_1": null, "operator_t": null, "capacity_p": null, "addr_full": null, "addr_city": null, "source": null, "name_sw": null, "osm_id": 8006210485.0, "osm_type": "nodes" }, "geometry": { "type": "Point", "coordinates": [ 36.857676512308828, -1.261833783481927 ] } },
{ "type": "Feature", "properties": { "OBJECTID": 186, "name": "Elykim health clinic", "name_en": null, "amenity": "clinic", "building": null, "healthcare": null, "healthca_1": null, "operator_t": null, "capacity_p": null, "addr_full": null, "addr_city": null, "source": null, "name_sw": null, "osm_id": 8006237585.0, "osm_type": "nodes" }, "geometry": { "type": "Point", "coordinates": [ 36.857836012936396, -1.261921683830694 ] } },
{ "type": "Feature", "properties": { "OBJECTID": 187, "name": "Shofco Mathare Clinic", "name_en": null, "amenity": "hospital", "building": null, "healthcare": null, "healthca_1": null, "operator_t": "ngo", "capacity_p": null, "addr_full": null, "addr_city": null, "source": null, "name_sw": null, "osm_id": 7952200609.999999, "osm_type": "nodes" }, "geometry": { "type": "Point", "coordinates": [ 36.857952412592503, -1.263683085054214 ] } },
{ "type": "Feature", "properties": { "OBJECTID": 188, "name": "4B Dispensing", "name_en": null, "amenity": "pharmacy", "building": null, "healthcare": null, "healthca_1": null, "operator_t": null, "capacity_p": null, "addr_full": null, "addr_city": null, "source": null, "name_sw": null, "osm_id": 1110227333.0, "osm_type": "nodes" }, "geometry": { "type": "Point", "coordinates": [ 36.856803011966079, -1.263435084914281 ] } },
{ "type": "Feature", "properties": { "OBJECTID": 189, "name": "UnduguMedical Clinic", "name_en": null, "amenity": "hospital", "building": null, "healthcare": null, "healthca_1": null, "operator_t": null, "capacity_p": null, "addr_full": null, "addr_city": null, "source": null, "name_sw": null, "osm_id": 1038193546.0, "osm_type": "nodes" }, "geometry": { "type": "Point", "coordinates": [ 36.85714311160762, -1.264510585207511 ] } },
{ "type": "Feature", "properties": { "OBJECTID": 190, "name": "Nile Medical centre", "name_en": null, "amenity": "clinic", "building": null, "healthcare": null, "healthca_1": null, "operator_t": "private", "capacity_p": null, "addr_full": null, "addr_city": null, "source": null, "name_sw": null, "osm_id": 7952200612.0, "osm_type": "nodes" }, "geometry": { "type": "Point", "coordinates": [ 36.857398812403652, -1.261953583672609 ] } },
{ "type": "Feature", "properties": { "OBJECTID": 191, "name": "Newstart Herbal", "name_en": null, "amenity": "pharmacy", "building": null, "healthcare": null, "healthca_1": null, "operator_t": null, "capacity_p": null, "addr_full": null, "addr_city": null, "source": null, "name_sw": null, "osm_id": 3856214866.0, "osm_type": "nodes" }, "geometry": { "type": "Point", "coordinates": [ 36.849358205440119, -1.313710322222834 ] } },
{ "type": "Feature", "properties": { "OBJECTID": 192, "name": "Tahidi chemist", "name_en": null, "amenity": "pharmacy", "building": null, "healthcare": null, "healthca_1": null, "operator_t": null, "capacity_p": null, "addr_full": null, "addr_city": null, "source": null, "name_sw": null, "osm_id": 3856214669.0, "osm_type": "nodes" }, "geometry": { "type": "Point", "coordinates": [ 36.849323505695288, -1.313697022025385 ] } },
{ "type": "Feature", "properties": { "OBJECTID": 193, "name": null, "name_en": null, "amenity": "pharmacy", "building": null, "healthcare": null, "healthca_1": null, "operator_t": null, "capacity_p": null, "addr_full": null, "addr_city": null, "source": null, "name_sw": null, "osm_id": 1500016839.0, "osm_type": "nodes" }, "geometry": { "type": "Point", "coordinates": [ 36.847709804212847, -1.314218422671231 ] } },
{ "type": "Feature", "properties": { "OBJECTID": 194, "name": null, "name_en": null, "amenity": "pharmacy", "building": null, "healthcare": null, "healthca_1": null, "operator_t": null, "capacity_p": null, "addr_full": null, "addr_city": null, "source": null, "name_sw": null, "osm_id": 1500016842.0, "osm_type": "nodes" }, "geometry": { "type": "Point", "coordinates": [ 36.847968704640067, -1.314268722342259 ] } },
{ "type": "Feature", "properties": { "OBJECTID": 195, "name": null, "name_en": null, "amenity": "pharmacy", "building": null, "healthcare": null, "healthca_1": null, "operator_t": null, "capacity_p": null, "addr_full": null, "addr_city": null, "source": null, "name_sw": null, "osm_id": 3856214868.0, "osm_type": "nodes" }, "geometry": { "type": "Point", "coordinates": [ 36.849484406044361, -1.314385322378604 ] } },
{ "type": "Feature", "properties": { "OBJECTID": 196, "name": "All saint medical clinic", "name_en": null, "amenity": "pharmacy", "building": null, "healthcare": null, "healthca_1": null, "operator_t": null, "capacity_p": null, "addr_full": null, "addr_city": null, "source": null, "name_sw": null, "osm_id": 1446059183.0, "osm_type": "nodes" }, "geometry": { "type": "Point", "coordinates": [ 36.865996118221638, -1.316015023867963 ] } },
{ "type": "Feature", "properties": { "OBJECTID": 197, "name": null, "name_en": null, "amenity": "pharmacy", "building": null, "healthcare": null, "healthca_1": null, "operator_t": null, "capacity_p": null, "addr_full": null, "addr_city": null, "source": null, "name_sw": null, "osm_id": 1500016806.0, "osm_type": "nodes" }, "geometry": { "type": "Point", "coordinates": [ 36.845580602809001, -1.31217172127682 ] } },
{ "type": "Feature", "properties": { "OBJECTID": 198, "name": null, "name_en": null, "amenity": "pharmacy", "building": null, "healthcare": null, "healthca_1": null, "operator_t": null, "capacity_p": null, "addr_full": null, "addr_city": null, "source": null, "name_sw": null, "osm_id": 1500016792.0000002, "osm_type": "nodes" }, "geometry": { "type": "Point", "coordinates": [ 36.845375902651845, -1.311861920478681 ] } },
{ "type": "Feature", "properties": { "OBJECTID": 199, "name": "Galex Chemist", "name_en": null, "amenity": "pharmacy", "building": null, "healthcare": null, "healthca_1": null, "operator_t": "unknown", "capacity_p": null, "addr_full": null, "addr_city": null, "source": null, "name_sw": null, "osm_id": 8074036745.0, "osm_type": "nodes" }, "geometry": { "type": "Point", "coordinates": [ 36.750799032311718, -1.288636403502892 ] } },
{ "type": "Feature", "properties": { "OBJECTID": 200, "name": "Late Night Chemist", "name_en": null, "amenity": "pharmacy", "building": null, "healthcare": null, "healthca_1": null, "operator_t": "unknown", "capacity_p": null, "addr_full": null, "addr_city": null, "source": null, "name_sw": null, "osm_id": 8074036744.000001, "osm_type": "nodes" }, "geometry": { "type": "Point", "coordinates": [ 36.751395632435006, -1.288691403107434 ] } },
{ "type": "Feature", "properties": { "OBJECTID": 201, "name": "Vila", "name_en": null, "amenity": "pharmacy", "building": null, "healthcare": null, "healthca_1": null, "operator_t": "unknown", "capacity_p": null, "addr_full": null, "addr_city": null, "source": null, "name_sw": null, "osm_id": 8074036752.0, "osm_type": "nodes" }, "geometry": { "type": "Point", "coordinates": [ 36.744539527388923, -1.288520903107943 ] } },
{ "type": "Feature", "properties": { "OBJECTID": 202, "name": "Sunrise Medicare", "name_en": null, "amenity": "pharmacy", "building": null, "healthcare": null, "healthca_1": null, "operator_t": null, "capacity_p": null, "addr_full": null, "addr_city": null, "source": null, "name_sw": null, "osm_id": 914492933.0, "osm_type": "nodes" }, "geometry": { "type": "Point", "coordinates": [ 36.884204331639552, -1.321249227559731 ] } },
{ "type": "Feature", "properties": { "OBJECTID": 203, "name": "Trust and Rejoice Medical Clinic", "name_en": null, "amenity": "pharmacy", "building": null, "healthcare": null, "healthca_1": null, "operator_t": null, "capacity_p": null, "addr_full": null, "addr_city": null, "source": null, "name_sw": null, "osm_id": 1500016811.0, "osm_type": "nodes" }, "geometry": { "type": "Point", "coordinates": [ 36.846641204123223, -1.312329921645097 ] } },
{ "type": "Feature", "properties": { "OBJECTID": 204, "name": "Njimia Pharmaceutical ltd", "name_en": null, "amenity": "pharmacy", "building": null, "healthcare": null, "healthca_1": null, "operator_t": "unknown", "capacity_p": null, "addr_full": null, "addr_city": null, "source": null, "name_sw": null, "osm_id": 8074036760.0, "osm_type": "nodes" }, "geometry": { "type": "Point", "coordinates": [ 36.747092328883362, -1.28677140160269 ] } },
{ "type": "Feature", "properties": { "OBJECTID": 205, "name": "Krishna Pharmacy", "name_en": null, "amenity": "pharmacy", "building": null, "healthcare": "pharmacy", "healthca_1": null, "operator_t": null, "capacity_p": null, "addr_full": null, "addr_city": "Nairobi", "source": null, "name_sw": null, "osm_id": 10117889578.0, "osm_type": "nodes" }, "geometry": { "type": "Point", "coordinates": [ 36.817373681926242, -1.26010658185338 ] } },
{ "type": "Feature", "properties": { "OBJECTID": 206, "name": "Beta Care Setlite clinic", "name_en": null, "amenity": "clinic", "building": null, "healthcare": "clinic", "healthca_1": null, "operator_t": "private", "capacity_p": null, "addr_full": null, "addr_city": null, "source": null, "name_sw": null, "osm_id": 8416351018.0, "osm_type": "nodes" }, "geometry": { "type": "Point", "coordinates": [ 36.827294589246442, -1.277567295528294 ] } },
{ "type": "Feature", "properties": { "OBJECTID": 207, "name": "Duka la dawa", "name_en": null, "amenity": "pharmacy", "building": null, "healthcare": "pharmacy", "healthca_1": null, "operator_t": null, "capacity_p": null, "addr_full": null, "addr_city": null, "source": null, "name_sw": null, "osm_id": 8894604378.0, "osm_type": "nodes" }, "geometry": { "type": "Point", "coordinates": [ 36.863987416679976, -1.311028120173174 ] } },
{ "type": "Feature", "properties": { "OBJECTID": 208, "name": "Mercilin Afya Centre", "name_en": null, "amenity": "clinic", "building": null, "healthcare": "hospital", "healthca_1": null, "operator_t": "private", "capacity_p": null, "addr_full": null, "addr_city": "Nairobi", "source": null, "name_sw": null, "osm_id": 7930812998.0, "osm_type": "nodes" }, "geometry": { "type": "Point", "coordinates": [ 36.784369157304546, -1.312988521105038 ] } },
{ "type": "Feature", "properties": { "OBJECTID": 209, "name": "Getrude Donholm Clinic", "name_en": null, "amenity": "clinic", "building": null, "healthcare": "clinic", "healthca_1": null, "operator_t": null, "capacity_p": null, "addr_full": null, "addr_city": null, "source": null, "name_sw": null, "osm_id": 8420902617.0, "osm_type": "nodes" }, "geometry": { "type": "Point", "coordinates": [ 36.88559303343407, -1.295524009125232 ] } },
{ "type": "Feature", "properties": { "OBJECTID": 210, "name": "Edarp Donholm Clinic", "name_en": null, "amenity": "clinic", "building": null, "healthcare": "clinic", "healthca_1": null, "operator_t": "religious", "capacity_p": null, "addr_full": null, "addr_city": "Nairobi", "source": null, "name_sw": null, "osm_id": 8418086917.0, "osm_type": "nodes" }, "geometry": { "type": "Point", "coordinates": [ 36.886108433160274, -1.301931113269037 ] } },
{ "type": "Feature", "properties": { "OBJECTID": 211, "name": "Huduma Bora Medical Center", "name_en": null, "amenity": "clinic", "building": null, "healthcare": "clinic", "healthca_1": null, "operator_t": null, "capacity_p": null, "addr_full": null, "addr_city": null, "source": null, "name_sw": null, "osm_id": 8894592645.0, "osm_type": "nodes" }, "geometry": { "type": "Point", "coordinates": [ 36.884287431800253, -1.305368116136417 ] } },
{ "type": "Feature", "properties": { "OBJECTID": 212, "name": "Olive Link Medical Center", "name_en": null, "amenity": "laboratory", "building": null, "healthcare": "laboratory", "healthca_1": null, "operator_t": null, "capacity_p": null, "addr_full": null, "addr_city": null, "source": null, "name_sw": null, "osm_id": 8895109510.0, "osm_type": "nodes" }, "geometry": { "type": "Point", "coordinates": [ 36.881287429512106, -1.308978118662899 ] } },
{ "type": "Feature", "properties": { "OBJECTID": 213, "name": "Migration Health Assessment Center (MHAC)", "name_en": null, "amenity": "clinic", "building": null, "healthcare": "clinic", "healthca_1": null, "operator_t": null, "capacity_p": null, "addr_full": null, "addr_city": null, "source": null, "name_sw": null, "osm_id": 5352705127.0, "osm_type": "nodes" }, "geometry": { "type": "Point", "coordinates": [ 36.804439772104743, -1.231770461340192 ] } },
{ "type": "Feature", "properties": { "OBJECTID": 214, "name": "Kigen Bartilol", "name_en": null, "amenity": "clinic", "building": null, "healthcare": "clinic", "healthca_1": null, "operator_t": null, "capacity_p": null, "addr_full": null, "addr_city": null, "source": null, "name_sw": null, "osm_id": 5378551753.0, "osm_type": "nodes" }, "geometry": { "type": "Point", "coordinates": [ 36.812482778219383, -1.294587407590047 ] } },
{ "type": "Feature", "properties": { "OBJECTID": 215, "name": "outreach", "name_en": null, "amenity": "hospital", "building": null, "healthcare": "hospital", "healthca_1": null, "operator_t": null, "capacity_p": null, "addr_full": null, "addr_city": null, "source": null, "name_sw": null, "osm_id": 10780885601.0, "osm_type": "nodes" }, "geometry": { "type": "Point", "coordinates": [ 36.79269546349385, -1.311537219968739 ] } },
{ "type": "Feature", "properties": { "OBJECTID": 216, "name": "Bristol Park Hospital Fedha", "name_en": null, "amenity": "hospital", "building": null, "healthcare": "hospital", "healthca_1": "gynaecology;paediatrics", "operator_t": "private", "capacity_p": null, "addr_full": null, "addr_city": null, "source": null, "name_sw": null, "osm_id": 8416025917.0, "osm_type": "nodes" }, "geometry": { "type": "Point", "coordinates": [ 36.892307338230637, -1.313063921603798 ] } },
{ "type": "Feature", "properties": { "OBJECTID": 217, "name": "The Mater Hospital - Satellite Clinic(TRM)", "name_en": null, "amenity": "clinic", "building": null, "healthcare": "clinic", "healthca_1": null, "operator_t": "religious", "capacity_p": null, "addr_full": null, "addr_city": "Nairobi", "source": null, "name_sw": null, "osm_id": 3289275202.0, "osm_type": "nodes" }, "geometry": { "type": "Point", "coordinates": [ 36.888950936184372, -1.219837652510077 ] } },
{ "type": "Feature", "properties": { "OBJECTID": 218, "name": "Mirema Medical Centre", "name_en": null, "amenity": null, "building": null, "healthcare": "clinic", "healthca_1": null, "operator_t": null, "capacity_p": null, "addr_full": null, "addr_city": null, "source": null, "name_sw": null, "osm_id": 8210377109.000001, "osm_type": "nodes" }, "geometry": { "type": "Point", "coordinates": [ 36.887706335355865, -1.211351845997749 ] } },
{ "type": "Feature", "properties": { "OBJECTID": 219, "name": "Benchmark Pharmacy", "name_en": null, "amenity": "pharmacy", "building": null, "healthcare": "pharmacy", "healthca_1": null, "operator_t": null, "capacity_p": null, "addr_full": null, "addr_city": null, "source": null, "name_sw": null, "osm_id": 6081785209.0, "osm_type": "nodes" }, "geometry": { "type": "Point", "coordinates": [ 36.949640881383878, -1.252306477181272 ] } },
{ "type": "Feature", "properties": { "OBJECTID": 220, "name": "Alkem Chemist", "name_en": null, "amenity": "pharmacy", "building": null, "healthcare": null, "healthca_1": null, "operator_t": "unknown", "capacity_p": null, "addr_full": null, "addr_city": null, "source": null, "name_sw": null, "osm_id": 8074036783.0, "osm_type": "nodes" }, "geometry": { "type": "Point", "coordinates": [ 36.752024033039177, -1.29105480520674 ] } },
{ "type": "Feature", "properties": { "OBJECTID": 221, "name": "Galena", "name_en": null, "amenity": "pharmacy", "building": null, "healthcare": null, "healthca_1": null, "operator_t": "unknown", "capacity_p": null, "addr_full": null, "addr_city": null, "source": null, "name_sw": null, "osm_id": 8074036741.0, "osm_type": "nodes" }, "geometry": { "type": "Point", "coordinates": [ 36.750139031426862, -1.289779803876011 ] } },
{ "type": "Feature", "properties": { "OBJECTID": 222, "name": "Satelite Chemist", "name_en": null, "amenity": "pharmacy", "building": null, "healthcare": null, "healthca_1": null, "operator_t": "unknown", "capacity_p": null, "addr_full": null, "addr_city": null, "source": null, "name_sw": null, "osm_id": 8074036740.0, "osm_type": "nodes" }, "geometry": { "type": "Point", "coordinates": [ 36.739873223513968, -1.290410504536124 ] } },
{ "type": "Feature", "properties": { "OBJECTID": 223, "name": "Abijo", "name_en": null, "amenity": "pharmacy", "building": null, "healthcare": null, "healthca_1": null, "operator_t": "unknown", "capacity_p": null, "addr_full": null, "addr_city": null, "source": null, "name_sw": null, "osm_id": 8074036767.999999, "osm_type": "nodes" }, "geometry": { "type": "Point", "coordinates": [ 36.741609625267373, -1.289512303435923 ] } },
{ "type": "Feature", "properties": { "OBJECTID": 224, "name": "jobe medical clinic", "name_en": null, "amenity": "pharmacy", "building": null, "healthcare": null, "healthca_1": null, "operator_t": null, "capacity_p": null, "addr_full": null, "addr_city": null, "source": null, "name_sw": null, "osm_id": 878846969.00000012, "osm_type": "nodes" }, "geometry": { "type": "Point", "coordinates": [ 36.886238833883496, -1.316003923922281 ] } },
{ "type": "Feature", "properties": { "OBJECTID": 225, "name": "Proposed Health Centre", "name_en": null, "amenity": "hospital", "building": null, "healthcare": null, "healthca_1": null, "operator_t": null, "capacity_p": null, "addr_full": null, "addr_city": null, "source": null, "name_sw": null, "osm_id": 878845728.0, "osm_type": "nodes" }, "geometry": { "type": "Point", "coordinates": [ 36.887809235013286, -1.32509473109173 ] } },
{ "type": "Feature", "properties": { "OBJECTID": 226, "name": "Hope Medical Clinic", "name_en": null, "amenity": "pharmacy", "building": null, "healthcare": null, "healthca_1": null, "operator_t": null, "capacity_p": null, "addr_full": null, "addr_city": null, "source": null, "name_sw": null, "osm_id": 878846200.0, "osm_type": "nodes" }, "geometry": { "type": "Point", "coordinates": [ 36.887773334838201, -1.319068926603656 ] } },
{ "type": "Feature", "properties": { "OBJECTID": 227, "name": "Joag Chemist", "name_en": null, "amenity": "pharmacy", "building": null, "healthcare": null, "healthca_1": null, "operator_t": "unknown", "capacity_p": null, "addr_full": null, "addr_city": null, "source": null, "name_sw": null, "osm_id": 8074036785.0, "osm_type": "nodes" },