{
"type": "FeatureCollection",
"name": "school",
"crs": { "type": "name", "properties": { "name": "urn:ogc:def:crs:OGC:1.3:CRS84" } },
"features": [
{ "type": "Feature", "properties": { "OBJECTID": 1, "name": "Millennium Academy", "name_en": null, "amenity": "school", "building": null, "operator_t": "cbo", "capacity_p": null, "addr_full": null, "addr_city": null, "source": null, "name_sw": null, "osm_id": 6445081193.000001, "osm_type": "nodes" }, "geometry": { "type": "Point", "coordinates": [ 36.865023017833714, -1.258239580696573 ] } },
{ "type": "Feature", "properties": { "OBJECTID": 2, "name": "Genesis Joy Project Institute", "name_en": null, "amenity": "school", "building": null, "operator_t": "private_for_profit", "capacity_p": null, "addr_full": null, "addr_city": null, "source": null, "name_sw": null, "osm_id": 4472329843.0, "osm_type": "nodes" }, "geometry": { "type": "Point", "coordinates": [ 36.854641610059673, -1.261387382972285 ] } },
{ "type": "Feature", "properties": { "OBJECTID": 3, "name": "Maria Goretti Nursery School", "name_en": null, "amenity": "school", "building": null, "operator_t": null, "capacity_p": null, "addr_full": null, "addr_city": null, "source": null, "name_sw": null, "osm_id": 949598134.0, "osm_type": "nodes" }, "geometry": { "type": "Point", "coordinates": [ 36.881980330261158, -1.313538822565515 ] } },
{ "type": "Feature", "properties": { "OBJECTID": 4, "name": "Kiota School Dennis Pritt Campus", "name_en": null, "amenity": "school", "building": null, "operator_t": null, "capacity_p": null, "addr_full": null, "addr_city": "Nairobi", "source": null, "name_sw": null, "osm_id": 2875798610.0, "osm_type": "nodes" }, "geometry": { "type": "Point", "coordinates": [ 36.797136266678898, -1.286297502007047 ] } },
{ "type": "Feature", "properties": { "OBJECTID": 5, "name": "school of hair dressing", "name_en": null, "amenity": "school", "building": null, "operator_t": null, "capacity_p": null, "addr_full": null, "addr_city": null, "source": null, "name_sw": null, "osm_id": 1483304325.0, "osm_type": "nodes" }, "geometry": { "type": "Point", "coordinates": [ 36.842844100730481, -1.310715020248376 ] } },
{ "type": "Feature", "properties": { "OBJECTID": 6, "name": "sauti ya bwana primary school", "name_en": null, "amenity": "school", "building": null, "operator_t": null, "capacity_p": null, "addr_full": null, "addr_city": null, "source": null, "name_sw": null, "osm_id": 3856040858.9999995, "osm_type": "nodes" }, "geometry": { "type": "Point", "coordinates": [ 36.839929298435258, -1.308394118490789 ] } },
{ "type": "Feature", "properties": { "OBJECTID": 7, "name": "Kenya kids Learning centre", "name_en": null, "amenity": "school", "building": null, "operator_t": null, "capacity_p": null, "addr_full": null, "addr_city": null, "source": null, "name_sw": null, "osm_id": 3856214668.0, "osm_type": "nodes" }, "geometry": { "type": "Point", "coordinates": [ 36.848380004802216, -1.313739222305864 ] } },
{ "type": "Feature", "properties": { "OBJECTID": 8, "name": "Baptised academy", "name_en": null, "amenity": "school", "building": null, "operator_t": null, "capacity_p": null, "addr_full": null, "addr_city": null, "source": null, "name_sw": null, "osm_id": 2001079015.9999998, "osm_type": "nodes" }, "geometry": { "type": "Point", "coordinates": [ 36.840358899492657, -1.309188518761478 ] } },
{ "type": "Feature", "properties": { "OBJECTID": 9, "name": "Calcuta high school", "name_en": null, "amenity": "school", "building": null, "operator_t": null, "capacity_p": null, "addr_full": null, "addr_city": null, "source": null, "name_sw": null, "osm_id": 2405836217.0, "osm_type": "nodes" }, "geometry": { "type": "Point", "coordinates": [ 36.904707447903789, -1.237374465902303 ] } },
{ "type": "Feature", "properties": { "OBJECTID": 10, "name": "Jusama Community School", "name_en": null, "amenity": "school", "building": null, "operator_t": "community_owned", "capacity_p": null, "addr_full": null, "addr_city": null, "source": null, "name_sw": null, "osm_id": 9157641317.0, "osm_type": "nodes" }, "geometry": { "type": "Point", "coordinates": [ 36.867715819905278, -1.257645580376205 ] } },
{ "type": "Feature", "properties": { "OBJECTID": 11, "name": "Green Acorn Daycare & Kindergarten", "name_en": null, "amenity": "kindergarten", "building": null, "operator_t": null, "capacity_p": null, "addr_full": null, "addr_city": "Nairobi", "source": null, "name_sw": null, "osm_id": 5327942762.0, "osm_type": "nodes" }, "geometry": { "type": "Point", "coordinates": [ 36.843886902439145, -1.227985258205034 ] } },
{ "type": "Feature", "properties": { "OBJECTID": 12, "name": "Halfway House", "name_en": null, "amenity": "kindergarten", "building": null, "operator_t": null, "capacity_p": null, "addr_full": null, "addr_city": null, "source": null, "name_sw": null, "osm_id": 1802132888.0000002, "osm_type": "nodes" }, "geometry": { "type": "Point", "coordinates": [ 36.800639169468745, -1.21502684815499 ] } },
{ "type": "Feature", "properties": { "OBJECTID": 13, "name": "Rev. Osakaise Precious School", "name_en": null, "amenity": "school", "building": null, "operator_t": "private", "capacity_p": null, "addr_full": null, "addr_city": null, "source": null, "name_sw": null, "osm_id": 5926387127.0, "osm_type": "nodes" }, "geometry": { "type": "Point", "coordinates": [ 36.73652402122412, -1.274786392386491 ] } },
{ "type": "Feature", "properties": { "OBJECTID": 14, "name": "Joyrina Junior Academy", "name_en": null, "amenity": "school", "building": null, "operator_t": "individual", "capacity_p": null, "addr_full": null, "addr_city": null, "source": null, "name_sw": null, "osm_id": 9157591417.0, "osm_type": "nodes" }, "geometry": { "type": "Point", "coordinates": [ 36.867990820642028, -1.258674681797655 ] } },
{ "type": "Feature", "properties": { "OBJECTID": 15, "name": "MothersJoy Academy", "name_en": null, "amenity": "school", "building": null, "operator_t": "cbo", "capacity_p": null, "addr_full": null, "addr_city": null, "source": null, "name_sw": null, "osm_id": 9167259317.0, "osm_type": "nodes" }, "geometry": { "type": "Point", "coordinates": [ 36.875214725441801, -1.259151981691478 ] } },
{ "type": "Feature", "properties": { "OBJECTID": 16, "name": "Centre of Hope and Transformation", "name_en": null, "amenity": "school", "building": null, "operator_t": "cbo", "capacity_p": null, "addr_full": null, "addr_city": null, "source": null, "name_sw": null, "osm_id": 9164063621.0, "osm_type": "nodes" }, "geometry": { "type": "Point", "coordinates": [ 36.858049813106874, -1.262964284764503 ] } },
{ "type": "Feature", "properties": { "OBJECTID": 17, "name": "South_b_baptist_academy", "name_en": null, "amenity": "school", "building": null, "operator_t": null, "capacity_p": null, "addr_full": null, "addr_city": null, "source": null, "name_sw": null, "osm_id": 2296746212.0, "osm_type": "nodes" }, "geometry": { "type": "Point", "coordinates": [ 36.840644399219087, -1.309374719180528 ] } },
{ "type": "Feature", "properties": { "OBJECTID": 18, "name": "Seasons School", "name_en": null, "amenity": "school", "building": null, "operator_t": null, "capacity_p": null, "addr_full": null, "addr_city": null, "source": null, "name_sw": null, "osm_id": 5948220720.0, "osm_type": "nodes" }, "geometry": { "type": "Point", "coordinates": [ 36.755261834944491, -1.267292087460985 ] } },
{ "type": "Feature", "properties": { "OBJECTID": 19, "name": "Bridge International School", "name_en": null, "amenity": "school", "building": null, "operator_t": null, "capacity_p": null, "addr_full": null, "addr_city": null, "source": null, "name_sw": null, "osm_id": 1678079270.0, "osm_type": "nodes" }, "geometry": { "type": "Point", "coordinates": [ 36.861612114770033, -1.314759823110497 ] } },
{ "type": "Feature", "properties": { "OBJECTID": 20, "name": "Kangemi High School", "name_en": null, "amenity": "school", "building": null, "operator_t": "government", "capacity_p": null, "addr_full": null, "addr_city": null, "source": null, "name_sw": null, "osm_id": 5926355915.999999, "osm_type": "nodes" }, "geometry": { "type": "Point", "coordinates": [ 36.747271229594432, -1.270482290043313 ] } },
{ "type": "Feature", "properties": { "OBJECTID": 21, "name": "Karuna School", "name_en": null, "amenity": "school", "building": null, "operator_t": "private", "capacity_p": null, "addr_full": null, "addr_city": null, "source": null, "name_sw": null, "osm_id": 8184308735.000001, "osm_type": "nodes" }, "geometry": { "type": "Point", "coordinates": [ 36.85902741388432, -1.261496383127183 ] } },
{ "type": "Feature", "properties": { "OBJECTID": 22, "name": "Patmos School.", "name_en": null, "amenity": "school", "building": null, "operator_t": "cbo", "capacity_p": null, "addr_full": null, "addr_city": null, "source": null, "name_sw": null, "osm_id": 4462893659.0, "osm_type": "nodes" }, "geometry": { "type": "Point", "coordinates": [ 36.857871612644303, -1.263574885046413 ] } },
{ "type": "Feature", "properties": { "OBJECTID": 23, "name": "Mathare Kingsway Education Centre", "name_en": null, "amenity": "school", "building": null, "operator_t": "private", "capacity_p": null, "addr_full": null, "addr_city": null, "source": null, "name_sw": null, "osm_id": 8184385971.0, "osm_type": "nodes" }, "geometry": { "type": "Point", "coordinates": [ 36.857719112740988, -1.261739783187728 ] } },
{ "type": "Feature", "properties": { "OBJECTID": 24, "name": "Heidemarie Primary School", "name_en": null, "amenity": "school", "building": null, "operator_t": "national_government", "capacity_p": null, "addr_full": null, "addr_city": null, "source": null, "name_sw": null, "osm_id": 6445081209.0, "osm_type": "nodes" }, "geometry": { "type": "Point", "coordinates": [ 36.863684517308549, -1.257585880829806 ] } },
{ "type": "Feature", "properties": { "OBJECTID": 25, "name": "School Of Hope", "name_en": null, "amenity": "school", "building": null, "operator_t": "ngo", "capacity_p": null, "addr_full": null, "addr_city": null, "source": null, "name_sw": null, "osm_id": 8184260965.0, "osm_type": "nodes" }, "geometry": { "type": "Point", "coordinates": [ 36.862157415643679, -1.261594783784563 ] } },
{ "type": "Feature", "properties": { "OBJECTID": 26, "name": "Future Star Centre", "name_en": null, "amenity": "school", "building": null, "operator_t": "private_for_profit", "capacity_p": null, "addr_full": null, "addr_city": null, "source": null, "name_sw": null, "osm_id": 9053069462.0, "osm_type": "nodes" }, "geometry": { "type": "Point", "coordinates": [ 36.775145649949437, -1.315491423437771 ] } },
{ "type": "Feature", "properties": { "OBJECTID": 27, "name": "Our Lady Of Nazareth Pri", "name_en": null, "amenity": "school", "building": null, "operator_t": null, "capacity_p": null, "addr_full": null, "addr_city": null, "source": null, "name_sw": null, "osm_id": 949597642.0, "osm_type": "nodes" }, "geometry": { "type": "Point", "coordinates": [ 36.880455429702835, -1.314639722864325 ] } },
{ "type": "Feature", "properties": { "OBJECTID": 28, "name": "Hanka Education Centre", "name_en": null, "amenity": "school", "building": null, "operator_t": "private", "capacity_p": null, "addr_full": null, "addr_city": null, "source": null, "name_sw": null, "osm_id": 8184211110.0, "osm_type": "nodes" }, "geometry": { "type": "Point", "coordinates": [ 36.862475715777684, -1.258254781249735 ] } },
{ "type": "Feature", "properties": { "OBJECTID": 29, "name": "Chang Rong Light Center", "name_en": null, "amenity": "school", "building": null, "operator_t": "cbo", "capacity_p": null, "addr_full": null, "addr_city": null, "source": null, "name_sw": null, "osm_id": 8184270945.0, "osm_type": "nodes" }, "geometry": { "type": "Point", "coordinates": [ 36.861292415499349, -1.258936381886806 ] } },
{ "type": "Feature", "properties": { "OBJECTID": 30, "name": null, "name_en": null, "amenity": "school", "building": null, "operator_t": null, "capacity_p": null, "addr_full": null, "addr_city": null, "source": null, "name_sw": null, "osm_id": 11902999270.0, "osm_type": "nodes" }, "geometry": { "type": "Point", "coordinates": [ 36.819333083598337, -1.324521230244813 ] } },
{ "type": "Feature", "properties": { "OBJECTID": 31, "name": "Tommie Fulp Adventist Academy", "name_en": null, "amenity": "school", "building": null, "operator_t": "religious", "capacity_p": null, "addr_full": null, "addr_city": null, "source": null, "name_sw": null, "osm_id": 5922075119.0, "osm_type": "nodes" }, "geometry": { "type": "Point", "coordinates": [ 36.725063112724058, -1.255373377868848 ] } },
{ "type": "Feature", "properties": { "OBJECTID": 32, "name": "Myto Junior Academy", "name_en": null, "amenity": "school", "building": null, "operator_t": "private", "capacity_p": null, "addr_full": null, "addr_city": null, "source": null, "name_sw": null, "osm_id": 1038202672.0, "osm_type": "nodes" }, "geometry": { "type": "Point", "coordinates": [ 36.856750511415598, -1.261736483644686 ] } },
{ "type": "Feature", "properties": { "OBJECTID": 33, "name": "Angel Girls Education Centre", "name_en": null, "amenity": "school", "building": null, "operator_t": "private", "capacity_p": null, "addr_full": null, "addr_city": null, "source": null, "name_sw": null, "osm_id": 1100019215.0, "osm_type": "nodes" }, "geometry": { "type": "Point", "coordinates": [ 36.854163910197784, -1.263388784813467 ] } },
{ "type": "Feature", "properties": { "OBJECTID": 34, "name": "Kenya Institute of Mass Communication", "name_en": null, "amenity": "school", "building": null, "operator_t": null, "capacity_p": null, "addr_full": null, "addr_city": null, "source": null, "name_sw": null, "osm_id": 1578608538.0, "osm_type": "nodes" }, "geometry": { "type": "Point", "coordinates": [ 36.830474791488264, -1.310563819895138 ] } },
{ "type": "Feature", "properties": { "OBJECTID": 35, "name": "MCO Primary School", "name_en": null, "amenity": "school", "building": null, "operator_t": "religious", "capacity_p": null, "addr_full": null, "addr_city": null, "source": null, "name_sw": null, "osm_id": 4464622786.0, "osm_type": "nodes" }, "geometry": { "type": "Point", "coordinates": [ 36.857375211941779, -1.263629785189062 ] } },
{ "type": "Feature", "properties": { "OBJECTID": 36, "name": "Gitathuru Mission Of Hope", "name_en": null, "amenity": "school", "building": null, "operator_t": "ngo", "capacity_p": null, "addr_full": null, "addr_city": null, "source": null, "name_sw": null, "osm_id": 4463017734.0, "osm_type": "nodes" }, "geometry": { "type": "Point", "coordinates": [ 36.85541451047186, -1.26272768415646 ] } },
{ "type": "Feature", "properties": { "OBJECTID": 37, "name": "Caso Upendo Primary School", "name_en": null, "amenity": "school", "building": null, "operator_t": "cbo", "capacity_p": null, "addr_full": null, "addr_city": null, "source": null, "name_sw": null, "osm_id": 1038202670.9999999, "osm_type": "nodes" }, "geometry": { "type": "Point", "coordinates": [ 36.856344311769263, -1.261925783295247 ] } },
{ "type": "Feature", "properties": { "OBJECTID": 38, "name": "Missions Of Hope International (bondeni)", "name_en": null, "amenity": "school", "building": null, "operator_t": "ngo", "capacity_p": null, "addr_full": null, "addr_city": null, "source": null, "name_sw": null, "osm_id": 4454756893.0, "osm_type": "nodes" }, "geometry": { "type": "Point", "coordinates": [ 36.852698708284677, -1.26532488634628 ] } },
{ "type": "Feature", "properties": { "OBJECTID": 39, "name": "Lea Mathare", "name_en": null, "amenity": "school", "building": null, "operator_t": "cbo", "capacity_p": null, "addr_full": null, "addr_city": null, "source": null, "name_sw": null, "osm_id": 8157682836.0, "osm_type": "nodes" }, "geometry": { "type": "Point", "coordinates": [ 36.853642409169787, -1.262831384760847 ] } },
{ "type": "Feature", "properties": { "OBJECTID": 40, "name": "Mathare Kosovo Outspot And Community School", "name_en": null, "amenity": "school", "building": null, "operator_t": "religious", "capacity_p": null, "addr_full": null, "addr_city": null, "source": null, "name_sw": null, "osm_id": 4463082226.0, "osm_type": "nodes" }, "geometry": { "type": "Point", "coordinates": [ 36.854772410527161, -1.263256384748696 ] } },
{ "type": "Feature", "properties": { "OBJECTID": 41, "name": "Lea Daycare", "name_en": null, "amenity": "school", "building": null, "operator_t": "cbo", "capacity_p": null, "addr_full": null, "addr_city": null, "source": null, "name_sw": null, "osm_id": 8157770298.0, "osm_type": "nodes" }, "geometry": { "type": "Point", "coordinates": [ 36.854807410680102, -1.263691385298747 ] } },
{ "type": "Feature", "properties": { "OBJECTID": 42, "name": "Marhari Primary School", "name_en": null, "amenity": "school", "building": null, "operator_t": "county_government", "capacity_p": null, "addr_full": null, "addr_city": null, "source": null, "name_sw": null, "osm_id": 8157379994.0, "osm_type": "nodes" }, "geometry": { "type": "Point", "coordinates": [ 36.849405705886909, -1.262546384241521 ] } },
{ "type": "Feature", "properties": { "OBJECTID": 43, "name": "polystar educational centre", "name_en": null, "amenity": "school", "building": null, "operator_t": null, "capacity_p": null, "addr_full": null, "addr_city": null, "source": null, "name_sw": null, "osm_id": 878845707.0, "osm_type": "nodes" }, "geometry": { "type": "Point", "coordinates": [ 36.880589329500957, -1.319799627178387 ] } },
{ "type": "Feature", "properties": { "OBJECTID": 44, "name": "All Saints Cathedral Primary School", "name_en": null, "amenity": "school", "building": null, "operator_t": null, "capacity_p": null, "addr_full": null, "addr_city": null, "source": null, "name_sw": null, "osm_id": 1577711334.0, "osm_type": "nodes" }, "geometry": { "type": "Point", "coordinates": [ 36.810569776718594, -1.310455719852041 ] } },
{ "type": "Feature", "properties": { "OBJECTID": 45, "name": "Montessori Learners Centre", "name_en": null, "amenity": "school", "building": null, "operator_t": "private", "capacity_p": null, "addr_full": null, "addr_city": null, "source": null, "name_sw": null, "osm_id": 5933714627.0, "osm_type": "nodes" }, "geometry": { "type": "Point", "coordinates": [ 36.782154455754146, -1.255855079016795 ] } },
{ "type": "Feature", "properties": { "OBJECTID": 46, "name": "Blessings Baby Care", "name_en": null, "amenity": "school", "building": null, "operator_t": "private", "capacity_p": null, "addr_full": null, "addr_city": null, "source": null, "name_sw": null, "osm_id": 8157780961.0, "osm_type": "nodes" }, "geometry": { "type": "Point", "coordinates": [ 36.854747410296881, -1.263753084894297 ] } },
{ "type": "Feature", "properties": { "OBJECTID": 47, "name": "Anaweza Education Centre", "name_en": null, "amenity": "school", "building": null, "operator_t": "cbo", "capacity_p": null, "addr_full": null, "addr_city": null, "source": null, "name_sw": null, "osm_id": 1110227334.0, "osm_type": "nodes" }, "geometry": { "type": "Point", "coordinates": [ 36.85616951107901, -1.262860883994339 ] } },
{ "type": "Feature", "properties": { "OBJECTID": 48, "name": "Spring View Education Center", "name_en": null, "amenity": "school", "building": null, "operator_t": "private", "capacity_p": null, "addr_full": null, "addr_city": null, "source": null, "name_sw": null, "osm_id": 8157631065.0, "osm_type": "nodes" }, "geometry": { "type": "Point", "coordinates": [ 36.852869108997595, -1.265436386547774 ] } },
{ "type": "Feature", "properties": { "OBJECTID": 49, "name": "Joy Academy School", "name_en": null, "amenity": "school", "building": null, "operator_t": "private", "capacity_p": null, "addr_full": null, "addr_city": null, "source": null, "name_sw": null, "osm_id": 6445137886.000001, "osm_type": "nodes" }, "geometry": { "type": "Point", "coordinates": [ 36.853223708682364, -1.26308108413391 ] } },
{ "type": "Feature", "properties": { "OBJECTID": 50, "name": "Kutwa Baby Care", "name_en": null, "amenity": "school", "building": null, "operator_t": "private", "capacity_p": null, "addr_full": null, "addr_city": null, "source": null, "name_sw": null, "osm_id": 8157735363.0, "osm_type": "nodes" }, "geometry": { "type": "Point", "coordinates": [ 36.854590710030905, -1.263004784785856 ] } },
{ "type": "Feature", "properties": { "OBJECTID": 51, "name": "Wisdom Care School", "name_en": null, "amenity": "school", "building": null, "operator_t": "private", "capacity_p": null, "addr_full": null, "addr_city": null, "source": null, "name_sw": null, "osm_id": 8157770234.0, "osm_type": "nodes" }, "geometry": { "type": "Point", "coordinates": [ 36.854720709766305, -1.263559785370079 ] } },
{ "type": "Feature", "properties": { "OBJECTID": 52, "name": "Wilma", "name_en": null, "amenity": "college", "building": null, "operator_t": "private", "capacity_p": null, "addr_full": null, "addr_city": null, "source": null, "name_sw": null, "osm_id": 8157574852.0, "osm_type": "nodes" }, "geometry": { "type": "Point", "coordinates": [ 36.85157570780374, -1.266038086336492 ] } },
{ "type": "Feature", "properties": { "OBJECTID": 53, "name": "Wilma Training College", "name_en": null, "amenity": "college", "building": null, "operator_t": "private", "capacity_p": null, "addr_full": null, "addr_city": null, "source": null, "name_sw": null, "osm_id": 8157509322.000001, "osm_type": "nodes" }, "geometry": { "type": "Point", "coordinates": [ 36.850109107078097, -1.264044785355351 ] } },
{ "type": "Feature", "properties": { "OBJECTID": 54, "name": "Brookside Montessori Centre", "name_en": null, "amenity": "kindergarten", "building": null, "operator_t": null, "capacity_p": null, "addr_full": null, "addr_city": null, "source": null, "name_sw": null, "osm_id": 1489377557.0, "osm_type": "nodes" }, "geometry": { "type": "Point", "coordinates": [ 36.792821064058408, -1.258494080534134 ] } },
{ "type": "Feature", "properties": { "OBJECTID": 55, "name": "Triplechase day", "name_en": null, "amenity": "kindergarten", "building": null, "operator_t": null, "capacity_p": null, "addr_full": null, "addr_city": null, "source": null, "name_sw": null, "osm_id": 1437347955.0, "osm_type": "nodes" }, "geometry": { "type": "Point", "coordinates": [ 36.870398921582769, -1.317108224677806 ] } },
{ "type": "Feature", "properties": { "OBJECTID": 56, "name": "Eunice babycare", "name_en": null, "amenity": "kindergarten", "building": null, "operator_t": null, "capacity_p": null, "addr_full": null, "addr_city": null, "source": null, "name_sw": null, "osm_id": 1432507902.0, "osm_type": "nodes" }, "geometry": { "type": "Point", "coordinates": [ 36.874954225488047, -1.315645623726597 ] } },
{ "type": "Feature", "properties": { "OBJECTID": 57, "name": "Oxford Kindergarten School", "name_en": null, "amenity": "kindergarten", "building": null, "operator_t": null, "capacity_p": null, "addr_full": null, "addr_city": null, "source": null, "name_sw": null, "osm_id": 1419101763.0, "osm_type": "nodes" }, "geometry": { "type": "Point", "coordinates": [ 36.88820853515103, -1.321590628634917 ] } },
{ "type": "Feature", "properties": { "OBJECTID": 58, "name": "PCEA Valley", "name_en": null, "amenity": "school", "building": null, "operator_t": "cbo", "capacity_p": null, "addr_full": null, "addr_city": null, "source": null, "name_sw": null, "osm_id": 8128792981.000001, "osm_type": "nodes" }, "geometry": { "type": "Point", "coordinates": [ 36.845109103392765, -1.264554785392968 ] } },
{ "type": "Feature", "properties": { "OBJECTID": 59, "name": "St Pauline Day Care", "name_en": null, "amenity": "school", "building": null, "operator_t": "private", "capacity_p": null, "addr_full": null, "addr_city": null, "source": null, "name_sw": null, "osm_id": 8128894421.000001, "osm_type": "nodes" }, "geometry": { "type": "Point", "coordinates": [ 36.844697403045352, -1.265173086205449 ] } },
{ "type": "Feature", "properties": { "OBJECTID": 60, "name": "Gramo joy Primary school", "name_en": null, "amenity": "school", "building": null, "operator_t": "private", "capacity_p": null, "addr_full": null, "addr_city": null, "source": null, "name_sw": null, "osm_id": 878847369.00000012, "osm_type": "nodes" }, "geometry": { "type": "Point", "coordinates": [ 36.88741883466539, -1.317565225027618 ] } },
{ "type": "Feature", "properties": { "OBJECTID": 61, "name": "Destiny School", "name_en": null, "amenity": "school", "building": null, "operator_t": "private", "capacity_p": null, "addr_full": null, "addr_city": null, "source": null, "name_sw": null, "osm_id": 8129000931.0, "osm_type": "nodes" }, "geometry": { "type": "Point", "coordinates": [ 36.84566910370436, -1.265758086078101 ] } },
{ "type": "Feature", "properties": { "OBJECTID": 62, "name": "Joy Day", "name_en": null, "amenity": "school", "building": null, "operator_t": "private", "capacity_p": null, "addr_full": null, "addr_city": null, "source": null, "name_sw": null, "osm_id": 8128746631.0, "osm_type": "nodes" }, "geometry": { "type": "Point", "coordinates": [ 36.843695701906896, -1.266141387211439 ] } },
{ "type": "Feature", "properties": { "OBJECTID": 63, "name": "Mlango Kubwa Kenya Assemblies Of God (K. A. G)", "name_en": null, "amenity": "school", "building": null, "operator_t": "religious", "capacity_p": null, "addr_full": null, "addr_city": null, "source": null, "name_sw": null, "osm_id": 8128777237.000001, "osm_type": "nodes" }, "geometry": { "type": "Point", "coordinates": [ 36.844695702246185, -1.263981384783164 ] } },
{ "type": "Feature", "properties": { "OBJECTID": 64, "name": "Blessed Education Centre", "name_en": null, "amenity": "school", "building": null, "operator_t": "private", "capacity_p": null, "addr_full": null, "addr_city": null, "source": null, "name_sw": null, "osm_id": 8128866092.0, "osm_type": "nodes" }, "geometry": { "type": "Point", "coordinates": [ 36.845439103024603, -1.265076385828687 ] } },
{ "type": "Feature", "properties": { "OBJECTID": 65, "name": "Eden Community School", "name_en": null, "amenity": "school", "building": null, "operator_t": "private", "capacity_p": null, "addr_full": null, "addr_city": null, "source": null, "name_sw": null, "osm_id": 6445077915.0, "osm_type": "nodes" }, "geometry": { "type": "Point", "coordinates": [ 36.845489203108826, -1.265623886336009 ] } },
{ "type": "Feature", "properties": { "OBJECTID": 66, "name": "Emmanuel baby care", "name_en": null, "amenity": "school", "building": null, "operator_t": "private", "capacity_p": null, "addr_full": null, "addr_city": null, "source": null, "name_sw": null, "osm_id": 8128702910.0, "osm_type": "nodes" }, "geometry": { "type": "Point", "coordinates": [ 36.843640702218629, -1.266143087035537 ] } },
{ "type": "Feature", "properties": { "OBJECTID": 67, "name": "Warldorf Woodlands Schools of Happiness", "name_en": null, "amenity": "school", "building": null, "operator_t": "private", "capacity_p": null, "addr_full": null, "addr_city": null, "source": null, "name_sw": null, "osm_id": 5933714629.0, "osm_type": "nodes" }, "geometry": { "type": "Point", "coordinates": [ 36.780937054839178, -1.254440877850299 ] } },
{ "type": "Feature", "properties": { "OBJECTID": 68, "name": "Baptist Primary School", "name_en": null, "amenity": "school", "building": null, "operator_t": null, "capacity_p": null, "addr_full": null, "addr_city": null, "source": null, "name_sw": null, "osm_id": 1446059238.0, "osm_type": "nodes" }, "geometry": { "type": "Point", "coordinates": [ 36.877924427006086, -1.309434619548187 ] } },
{ "type": "Feature", "properties": { "OBJECTID": 69, "name": "Brain house academy", "name_en": null, "amenity": "school", "building": null, "operator_t": null, "capacity_p": null, "addr_full": null, "addr_city": null, "source": null, "name_sw": null, "osm_id": 1432507879.0, "osm_type": "nodes" }, "geometry": { "type": "Point", "coordinates": [ 36.874605725267713, -1.313614322016485 ] } },
{ "type": "Feature", "properties": { "OBJECTID": 70, "name": "Optica Academy", "name_en": null, "amenity": "school", "building": null, "operator_t": null, "capacity_p": null, "addr_full": null, "addr_city": null, "source": null, "name_sw": null, "osm_id": 1419101752.0, "osm_type": "nodes" }, "geometry": { "type": "Point", "coordinates": [ 36.889253035628663, -1.322033228401823 ] } },
{ "type": "Feature", "properties": { "OBJECTID": 71, "name": "Jophen Primary School", "name_en": null, "amenity": "school", "building": null, "operator_t": null, "capacity_p": null, "addr_full": null, "addr_city": null, "source": null, "name_sw": null, "osm_id": 1419004987.0, "osm_type": "nodes" }, "geometry": { "type": "Point", "coordinates": [ 36.886449433505405, -1.31728762496999 ] } },
{ "type": "Feature", "properties": { "OBJECTID": 72, "name": "Progress Junior Academy", "name_en": null, "amenity": "school", "building": null, "operator_t": null, "capacity_p": null, "addr_full": null, "addr_city": null, "source": null, "name_sw": null, "osm_id": 1419004998.0, "osm_type": "nodes" }, "geometry": { "type": "Point", "coordinates": [ 36.886623834118133, -1.319375926189563 ] } },
{ "type": "Feature", "properties": { "OBJECTID": 73, "name": "St. Stephens Academy", "name_en": null, "amenity": "school", "building": null, "operator_t": null, "capacity_p": null, "addr_full": null, "addr_city": null, "source": null, "name_sw": null, "osm_id": 1419005003.0, "osm_type": "nodes" }, "geometry": { "type": "Point", "coordinates": [ 36.88818733484559, -1.317483924827479 ] } },
{ "type": "Feature", "properties": { "OBJECTID": 74, "name": "Blessed Salon Training School", "name_en": null, "amenity": "school", "building": null, "operator_t": null, "capacity_p": null, "addr_full": null, "addr_city": null, "source": null, "name_sw": null, "osm_id": 1419004968.0, "osm_type": "nodes" }, "geometry": { "type": "Point", "coordinates": [ 36.886064833216345, -1.315359123707005 ] } },
{ "type": "Feature", "properties": { "OBJECTID": 75, "name": "Geotas Hope Academy Centre", "name_en": null, "amenity": "school", "building": null, "operator_t": null, "capacity_p": null, "addr_full": null, "addr_city": null, "source": null, "name_sw": null, "osm_id": 1419004980.0, "osm_type": "nodes" }, "geometry": { "type": "Point", "coordinates": [ 36.888488235707626, -1.318790526031329 ] } },
{ "type": "Feature", "properties": { "OBJECTID": 76, "name": "Jophen Community School", "name_en": null, "amenity": "school", "building": null, "operator_t": null, "capacity_p": null, "addr_full": null, "addr_city": null, "source": null, "name_sw": null, "osm_id": 1417918710.0, "osm_type": "nodes" }, "geometry": { "type": "Point", "coordinates": [ 36.884449231940863, -1.318158925922858 ] } },
{ "type": "Feature", "properties": { "OBJECTID": 77, "name": "Isiah Kings Academy", "name_en": null, "amenity": "school", "building": null, "operator_t": null, "capacity_p": null, "addr_full": null, "addr_city": null, "source": null, "name_sw": null, "osm_id": 1417918709.0, "osm_type": "nodes" }, "geometry": { "type": "Point", "coordinates": [ 36.884599232690235, -1.314056922647706 ] } },
{ "type": "Feature", "properties": { "OBJECTID": 78, "name": "Rodrise Academy", "name_en": null, "amenity": "school", "building": null, "operator_t": null, "capacity_p": null, "addr_full": null, "addr_city": null, "source": null, "name_sw": null, "osm_id": 1417918723.0, "osm_type": "nodes" }, "geometry": { "type": "Point", "coordinates": [ 36.885048433110015, -1.316760425094468 ] } },
{ "type": "Feature", "properties": { "OBJECTID": 79, "name": "Bridge International School", "name_en": null, "amenity": "school", "building": null, "operator_t": null, "capacity_p": null, "addr_full": null, "addr_city": null, "source": null, "name_sw": null, "osm_id": 1417861353.0, "osm_type": "nodes" }, "geometry": { "type": "Point", "coordinates": [ 36.878448527541359, -1.320931727896826 ] } },
{ "type": "Feature", "properties": { "OBJECTID": 80, "name": "Chaminade Training Center (Ctc)", "name_en": null, "amenity": "college", "building": null, "operator_t": null, "capacity_p": null, "addr_full": null, "addr_city": null, "source": null, "name_sw": null, "osm_id": 949597856.0, "osm_type": "nodes" }, "geometry": { "type": "Point", "coordinates": [ 36.881587730313505, -1.313790022248901 ] } },
{ "type": "Feature", "properties": { "OBJECTID": 81, "name": "Futuretech computer institute", "name_en": null, "amenity": "college", "building": null, "operator_t": null, "capacity_p": null, "addr_full": null, "addr_city": null, "source": null, "name_sw": null, "osm_id": 1446059267.0, "osm_type": "nodes" }, "geometry": { "type": "Point", "coordinates": [ 36.873840924447251, -1.31011181930374 ] } },
{ "type": "Feature", "properties": { "OBJECTID": 82, "name": "United Fellowship Center", "name_en": null, "amenity": "kindergarten", "building": null, "operator_t": null, "capacity_p": null, "addr_full": null, "addr_city": null, "source": null, "name_sw": null, "osm_id": 1111587117.0, "osm_type": "nodes" }, "geometry": { "type": "Point", "coordinates": [ 36.876147926130727, -1.250054875239403 ] } },
{ "type": "Feature", "properties": { "OBJECTID": 83, "name": "Kyuna Kindergarten", "name_en": null, "amenity": "kindergarten", "building": null, "operator_t": null, "capacity_p": null, "addr_full": null, "addr_city": "Nairobi", "source": null, "name_sw": null, "osm_id": 5580872754.0, "osm_type": "nodes" }, "geometry": { "type": "Point", "coordinates": [ 36.767192244633847, -1.250791175112612 ] } },
{ "type": "Feature", "properties": { "OBJECTID": 84, "name": "Kenyatta University School of Law", "name_en": null, "amenity": "school", "building": null, "operator_t": null, "capacity_p": null, "addr_full": null, "addr_city": null, "source": null, "name_sw": null, "osm_id": 4535635990.0, "osm_type": "nodes" }, "geometry": { "type": "Point", "coordinates": [ 36.816602781543303, -1.271725990533442 ] } },
{ "type": "Feature", "properties": { "OBJECTID": 85, "name": "St Maurus", "name_en": null, "amenity": "school", "building": null, "operator_t": "religious", "capacity_p": null, "addr_full": null, "addr_city": null, "source": null, "name_sw": null, "osm_id": 6445081216.0, "osm_type": "nodes" }, "geometry": { "type": "Point", "coordinates": [ 36.870423421670594, -1.252951076802495 ] } },
{ "type": "Feature", "properties": { "OBJECTID": 86, "name": "Wisdom Ashrays Center", "name_en": null, "amenity": "school", "building": null, "operator_t": "private", "capacity_p": null, "addr_full": null, "addr_city": null, "source": null, "name_sw": null, "osm_id": 7937755860.0, "osm_type": "nodes" }, "geometry": { "type": "Point", "coordinates": [ 36.785061157437582, -1.311622220173044 ] } },
{ "type": "Feature", "properties": { "OBJECTID": 87, "name": "Brown Daisy Children Centre", "name_en": null, "amenity": "school", "building": null, "operator_t": "private", "capacity_p": null, "addr_full": null, "addr_city": null, "source": null, "name_sw": null, "osm_id": 7937755880.0, "osm_type": "nodes" }, "geometry": { "type": "Point", "coordinates": [ 36.77889405276818, -1.314583122549598 ] } },
{ "type": "Feature", "properties": { "OBJECTID": 88, "name": "One Girl Can", "name_en": null, "amenity": "school", "building": null, "operator_t": "ngo", "capacity_p": null, "addr_full": null, "addr_city": null, "source": null, "name_sw": null, "osm_id": 7937755840.999999, "osm_type": "nodes" }, "geometry": { "type": "Point", "coordinates": [ 36.796322365547027, -1.313053121436608 ] } },
{ "type": "Feature", "properties": { "OBJECTID": 89, "name": "PCEA Silanga Nursery School", "name_en": null, "amenity": "school", "building": null, "operator_t": "religious", "capacity_p": null, "addr_full": null, "addr_city": null, "source": null, "name_sw": null, "osm_id": 7937755876.0, "osm_type": "nodes" }, "geometry": { "type": "Point", "coordinates": [ 36.797037366175147, -1.317644825377718 ] } },
{ "type": "Feature", "properties": { "OBJECTID": 90, "name": "Imara Primary School", "name_en": null, "amenity": "school", "building": null, "operator_t": null, "capacity_p": null, "addr_full": null, "addr_city": null, "source": null, "name_sw": null, "osm_id": 5636724233.0, "osm_type": "nodes" }, "geometry": { "type": "Point", "coordinates": [ 36.918991358468119, -1.272569291679215 ] } },
{ "type": "Feature", "properties": { "OBJECTID": 91, "name": "Thawabu Primary School", "name_en": null, "amenity": "school", "building": null, "operator_t": null, "capacity_p": null, "addr_full": null, "addr_city": null, "source": null, "name_sw": null, "osm_id": 5636724260.0, "osm_type": "nodes" }, "geometry": { "type": "Point", "coordinates": [ 36.916183556136822, -1.278222195752011 ] } },
{ "type": "Feature", "properties": { "OBJECTID": 92, "name": "Kayole South Secondary School", "name_en": null, "amenity": "school", "building": null, "operator_t": null, "capacity_p": null, "addr_full": null, "addr_city": null, "source": null, "name_sw": null, "osm_id": 5636724261.0, "osm_type": "nodes" }, "geometry": { "type": "Point", "coordinates": [ 36.916404256725095, -1.267713688159183 ] } },
{ "type": "Feature", "properties": { "OBJECTID": 93, "name": "St Antonieta", "name_en": null, "amenity": "school", "building": null, "operator_t": null, "capacity_p": null, "addr_full": null, "addr_city": null, "source": null, "name_sw": null, "osm_id": 1110239856.0, "osm_type": "nodes" }, "geometry": { "type": "Point", "coordinates": [ 36.845146902794639, -1.265330286591186 ] } },
{ "type": "Feature", "properties": { "OBJECTID": 94, "name": "Highridge Faith Based Education Center", "name_en": null, "amenity": "school", "building": null, "operator_t": null, "capacity_p": null, "addr_full": null, "addr_city": null, "source": null, "name_sw": null, "osm_id": 1732933796.0, "osm_type": "nodes" }, "geometry": { "type": "Point", "coordinates": [ 36.891913338484578, -1.250336875289749 ] } },
{ "type": "Feature", "properties": { "OBJECTID": 95, "name": "IAT Ecobank Towers", "name_en": null, "amenity": "college", "building": null, "operator_t": null, "capacity_p": null, "addr_full": null, "addr_city": "Nairobi", "source": null, "name_sw": null, "osm_id": 5555073777.0, "osm_type": "nodes" }, "geometry": { "type": "Point", "coordinates": [ 36.821098484673861, -1.285704201100989 ] } },
{ "type": "Feature", "properties": { "OBJECTID": 96, "name": "Lawrence Otule Baby Care", "name_en": null, "amenity": "kindergarten", "building": null, "operator_t": null, "capacity_p": null, "addr_full": null, "addr_city": null, "source": null, "name_sw": null, "osm_id": 949597510.0, "osm_type": "nodes" }, "geometry": { "type": "Point", "coordinates": [ 36.871003922174488, -1.314584522798697 ] } },
{ "type": "Feature", "properties": { "OBJECTID": 97, "name": "DAY CARE", "name_en": null, "amenity": "kindergarten", "building": null, "operator_t": null, "capacity_p": null, "addr_full": null, "addr_city": null, "source": null, "name_sw": null, "osm_id": 878847269.0, "osm_type": "nodes" }, "geometry": { "type": "Point", "coordinates": [ 36.885472632828822, -1.314476722546104 ] } },
{ "type": "Feature", "properties": { "OBJECTID": 98, "name": "Komido Center", "name_en": null, "amenity": "school", "building": null, "operator_t": null, "capacity_p": null, "addr_full": null, "addr_city": null, "source": null, "name_sw": null, "osm_id": 949597464.0, "osm_type": "nodes" }, "geometry": { "type": "Point", "coordinates": [ 36.879772428425078, -1.317669425110052 ] } },
{ "type": "Feature", "properties": { "OBJECTID": 99, "name": "Red-Roof Academy", "name_en": null, "amenity": "school", "building": null, "operator_t": null, "capacity_p": null, "addr_full": null, "addr_city": null, "source": null, "name_sw": null, "osm_id": 949597481.00000012, "osm_type": "nodes" }, "geometry": { "type": "Point", "coordinates": [ 36.88144193018038, -1.316749524922701 ] } },
{ "type": "Feature", "properties": { "OBJECTID": 100, "name": "Mwangaza tumaini primary", "name_en": null, "amenity": "school", "building": null, "operator_t": null, "capacity_p": null, "addr_full": null, "addr_city": null, "source": null, "name_sw": null, "osm_id": 949597587.99999988, "osm_type": "nodes" }, "geometry": { "type": "Point", "coordinates": [ 36.88576673293592, -1.31443932295683 ] } },
{ "type": "Feature", "properties": { "OBJECTID": 101, "name": "Rueben Baptist School", "name_en": null, "amenity": "school", "building": null, "operator_t": null, "capacity_p": null, "addr_full": null, "addr_city": null, "source": null, "name_sw": null, "osm_id": 949597665.00000012, "osm_type": "nodes" }, "geometry": { "type": "Point", "coordinates": [ 36.870855322382425, -1.314216722556658 ] } },
{ "type": "Feature", "properties": { "OBJECTID": 102, "name": "Jovial Community Education Centre", "name_en": null, "amenity": "school", "building": null, "operator_t": null, "capacity_p": null, "addr_full": null, "addr_city": null, "source": null, "name_sw": null, "osm_id": 949597793.00000012, "osm_type": "nodes" }, "geometry": { "type": "Point", "coordinates": [ 36.877929926942826, -1.315791524115947 ] } },
{ "type": "Feature", "properties": { "OBJECTID": 103, "name": "Downstream Community School", "name_en": null, "amenity": "school", "building": null, "operator_t": null, "capacity_p": null, "addr_full": null, "addr_city": null, "source": null, "name_sw": null, "osm_id": 949598187.0, "osm_type": "nodes" }, "geometry": { "type": "Point", "coordinates": [ 36.885596933580196, -1.308406518047468 ] } },
{ "type": "Feature", "properties": { "OBJECTID": 104, "name": "St. Jude'S Catholic Church Ecd", "name_en": null, "amenity": "school", "building": null, "operator_t": null, "capacity_p": null, "addr_full": null, "addr_city": null, "source": null, "name_sw": null, "osm_id": 949597840.0, "osm_type": "nodes" }, "geometry": { "type": "Point", "coordinates": [ 36.870255221302422, -1.314621122945117 ] } },
{ "type": "Feature", "properties": { "OBJECTID": 105, "name": "Imani Community School", "name_en": null, "amenity": "school", "building": null, "operator_t": null, "capacity_p": null, "addr_full": null, "addr_city": null, "source": null, "name_sw": null, "osm_id": 949597859.0, "osm_type": "nodes" }, "geometry": { "type": "Point", "coordinates": [ 36.883712931896596, -1.313596522042559 ] } },
{ "type": "Feature", "properties": { "OBJECTID": 106, "name": "Neema Rehab Community School", "name_en": null, "amenity": "school", "building": null, "operator_t": null, "capacity_p": null, "addr_full": null, "addr_city": null, "source": null, "name_sw": null, "osm_id": 949598046.99999988, "osm_type": "nodes" }, "geometry": { "type": "Point", "coordinates": [ 36.869598920760396, -1.313479522427309 ] } },
{ "type": "Feature", "properties": { "OBJECTID": 107, "name": "Angaza Community School", "name_en": null, "amenity": "school", "building": null, "operator_t": null, "capacity_p": null, "addr_full": null, "addr_city": null, "source": null, "name_sw": null, "osm_id": 949598078.0, "osm_type": "nodes" }, "geometry": { "type": "Point", "coordinates": [ 36.886575933482924, -1.321115528241552 ] } },
{ "type": "Feature", "properties": { "OBJECTID": 108, "name": "Sidarec Ecd", "name_en": null, "amenity": "school", "building": null, "operator_t": null, "capacity_p": null, "addr_full": null, "addr_city": null, "source": null, "name_sw": null, "osm_id": 949598230.0, "osm_type": "nodes" }, "geometry": { "type": "Point", "coordinates": [ 36.885097532914557, -1.320182826892098 ] } },
{ "type": "Feature", "properties": { "OBJECTID": 109, "name": "Reuben Pry Sch & Polytechnic", "name_en": null, "amenity": "school", "building": null, "operator_t": null, "capacity_p": null, "addr_full": null, "addr_city": null, "source": null, "name_sw": null, "osm_id": 949598062.0, "osm_type": "nodes" }, "geometry": { "type": "Point", "coordinates": [ 36.869697921136122, -1.315571523262177 ] } },
{ "type": "Feature", "properties": { "OBJECTID": 110, "name": "Baptist Primary School", "name_en": null, "amenity": "school", "building": null, "operator_t": null, "capacity_p": null, "addr_full": null, "addr_city": null, "source": null, "name_sw": null, "osm_id": 949598174.0, "osm_type": "nodes" }, "geometry": { "type": "Point", "coordinates": [ 36.877981927734034, -1.309699519370621 ] } },
{ "type": "Feature", "properties": { "OBJECTID": 111, "name": "merry cliff junior academy", "name_en": null, "amenity": "school", "building": null, "operator_t": null, "capacity_p": null, "addr_full": null, "addr_city": null, "source": null, "name_sw": null, "osm_id": 878845809.00000012, "osm_type": "nodes" }, "geometry": { "type": "Point", "coordinates": [ 36.883854032034137, -1.32134032851345 ] } },
{ "type": "Feature", "properties": { "OBJECTID": 112, "name": "emirates pri.sch", "name_en": null, "amenity": "school", "building": null, "operator_t": null, "capacity_p": null, "addr_full": null, "addr_city": null, "source": null, "name_sw": null, "osm_id": 878846662.0, "osm_type": "nodes" }, "geometry": { "type": "Point", "coordinates": [ 36.882355530864352, -1.318216125402077 ] } },
{ "type": "Feature", "properties": { "OBJECTID": 113, "name": "Catholine school", "name_en": null, "amenity": "school", "building": null, "operator_t": null, "capacity_p": null, "addr_full": null, "addr_city": null, "source": null, "name_sw": null, "osm_id": 878847331.99999988, "osm_type": "nodes" }, "geometry": { "type": "Point", "coordinates": [ 36.886641334080394, -1.316482124355531 ] } },
{ "type": "Feature", "properties": { "OBJECTID": 114, "name": "Institute of Advanced Technology IAT Pension Towers Campus", "name_en": null, "amenity": "college", "building": null, "operator_t": null, "capacity_p": null, "addr_full": null, "addr_city": "Nairobi", "source": null, "name_sw": null, "osm_id": 5536006826.0, "osm_type": "nodes" }, "geometry": { "type": "Point", "coordinates": [ 36.817559481936271, -1.283479899475649 ] } },
{ "type": "Feature", "properties": { "OBJECTID": 115, "name": "Seniors Driving School", "name_en": null, "amenity": "college", "building": null, "operator_t": null, "capacity_p": null, "addr_full": null, "addr_city": null, "source": null, "name_sw": null, "osm_id": 1038219184.0, "osm_type": "nodes" }, "geometry": { "type": "Point", "coordinates": [ 36.874141524897603, -1.250489975087725 ] } },
{ "type": "Feature", "properties": { "OBJECTID": 116, "name": "Davinson Education centre", "name_en": null, "amenity": "kindergarten", "building": null, "operator_t": "private", "capacity_p": null, "addr_full": null, "addr_city": null, "source": "KRCS2024", "name_sw": null, "osm_id": 11801760312.0, "osm_type": "nodes" }, "geometry": { "type": "Point", "coordinates": [ 36.845622503022049, -1.265274085934497 ] } },
{ "type": "Feature", "properties": { "OBJECTID": 117, "name": "Mathare child development center", "name_en": null, "amenity": "kindergarten", "building": null, "operator_t": "private", "capacity_p": null, "addr_full": null, "addr_city": null, "source": "KRCS2024", "name_sw": null, "osm_id": 11801760318.0, "osm_type": "nodes" }, "geometry": { "type": "Point", "coordinates": [ 36.845085702708914, -1.264024785072777 ] } },
{ "type": "Feature", "properties": { "OBJECTID": 118, "name": "Mysa Library", "name_en": null, "amenity": "kindergarten", "building": null, "operator_t": "NGO", "capacity_p": null, "addr_full": null, "addr_city": null, "source": "KRCS2024", "name_sw": null, "osm_id": 11801760321.0, "osm_type": "nodes" }, "geometry": { "type": "Point", "coordinates": [ 36.849948806958416, -1.264421985647384 ] } },
{ "type": "Feature", "properties": { "OBJECTID": 119, "name": "Strong foundationeducation centre", "name_en": null, "amenity": "kindergarten", "building": null, "operator_t": "private", "capacity_p": null, "addr_full": null, "addr_city": null, "source": "KRCS2024", "name_sw": null, "osm_id": 11801760329.0, "osm_type": "nodes" }, "geometry": { "type": "Point", "coordinates": [ 36.844219001941113, -1.265540386056886 ] } },
{ "type": "Feature", "properties": { "OBJECTID": 120, "name": "Bunks and Biddles Montessori Kindergarten", "name_en": null, "amenity": "kindergarten", "building": null, "operator_t": null, "capacity_p": null, "addr_full": null, "addr_city": null, "source": null, "name_sw": null, "osm_id": 695644706.0, "osm_type": "nodes" }, "geometry": { "type": "Point", "coordinates": [ 36.736049520700981, -1.335022737344553 ] } },
{ "type": "Feature", "properties": { "OBJECTID": 121, "name": "Community Care School", "name_en": null, "amenity": "school", "building": null, "operator_t": "cbo", "capacity_p": null, "addr_full": null, "addr_city": null, "source": null, "name_sw": null, "osm_id": 9134936917.0, "osm_type": "nodes" }, "geometry": { "type": "Point", "coordinates": [ 36.844661102484928, -1.265694486629704 ] } },
{ "type": "Feature", "properties": { "OBJECTID": 122, "name": "Angel Junior Academy", "name_en": null, "amenity": "school", "building": null, "operator_t": "private_for_profit", "capacity_p": null, "addr_full": null, "addr_city": null, "source": null, "name_sw": null, "osm_id": 9137254518.0, "osm_type": "nodes" }, "geometry": { "type": "Point", "coordinates": [ 36.849190706121007, -1.266004986370941 ] } },
{ "type": "Feature", "properties": { "OBJECTID": 123, "name": "Loving Concern Education Centre", "name_en": null, "amenity": "school", "building": null, "operator_t": "religious", "capacity_p": null, "addr_full": null, "addr_city": null, "source": null, "name_sw": null, "osm_id": 9137263417.0, "osm_type": "nodes" }, "geometry": { "type": "Point", "coordinates": [ 36.845015702734599, -1.264595385875561 ] } },
{ "type": "Feature", "properties": { "OBJECTID": 124, "name": "Angel Junior Academy", "name_en": null, "amenity": "school", "building": null, "operator_t": "private_for_profit", "capacity_p": null, "addr_full": null, "addr_city": null, "source": null, "name_sw": null, "osm_id": 9137409517.0, "osm_type": "nodes" }, "geometry": { "type": "Point", "coordinates": [ 36.84913940618236, -1.265760986547436 ] } },
{ "type": "Feature", "properties": { "OBJECTID": 125, "name": "Valley View Academy", "name_en": null, "amenity": "school", "building": null, "operator_t": "community_owned", "capacity_p": null, "addr_full": null, "addr_city": null, "source": null, "name_sw": null, "osm_id": 9137438617.0, "osm_type": "nodes" }, "geometry": { "type": "Point", "coordinates": [ 36.852965709030819, -1.265039785892144 ] } },
{ "type": "Feature", "properties": { "OBJECTID": 126, "name": "The spring view school", "name_en": null, "amenity": "school", "building": null, "operator_t": "private", "capacity_p": null, "addr_full": null, "addr_city": null, "source": "KRCS2024", "name_sw": null, "osm_id": 11801760334.0, "osm_type": "nodes" }, "geometry": { "type": "Point", "coordinates": [ 36.843866601948825, -1.265875586479942 ] } },
{ "type": "Feature", "properties": { "OBJECTID": 127, "name": "Loving Concern Education Centre", "name_en": null, "amenity": "school", "building": null, "operator_t": "private", "capacity_p": null, "addr_full": null, "addr_city": null, "source": null, "name_sw": null, "osm_id": 1110239853.0, "osm_type": "nodes" }, "geometry": { "type": "Point", "coordinates": [ 36.844919802585089, -1.264585385359776 ] } },
{ "type": "Feature", "properties": { "OBJECTID": 128, "name": "Valley View Academy", "name_en": null, "amenity": "school", "building": null, "operator_t": "community_owned", "capacity_p": null, "addr_full": null, "addr_city": null, "source": null, "name_sw": null, "osm_id": 4454756897.0, "osm_type": "nodes" }, "geometry": { "type": "Point", "coordinates": [ 36.852955209281532, -1.265039786204123 ] } },
{ "type": "Feature", "properties": { "OBJECTID": 129, "name": "Community Care School", "name_en": null, "amenity": "school", "building": null, "operator_t": "cbo", "capacity_p": null, "addr_full": null, "addr_city": null, "source": null, "name_sw": null, "osm_id": 6445138085.0, "osm_type": "nodes" }, "geometry": { "type": "Point", "coordinates": [ 36.844792802350021, -1.265745086101 ] } },
{ "type": "Feature", "properties": { "OBJECTID": 130, "name": "Strong Foundation Education Centre", "name_en": null, "amenity": "school", "building": null, "operator_t": "individual", "capacity_p": null, "addr_full": null, "addr_city": null, "source": null, "name_sw": null, "osm_id": 9134851417.0, "osm_type": "nodes" }, "geometry": { "type": "Point", "coordinates": [ 36.84425780229639, -1.265525886207371 ] } },
{ "type": "Feature", "properties": { "OBJECTID": 131, "name": "Strong Foundation Education Centre", "name_en": null, "amenity": "school", "building": null, "operator_t": "individual", "capacity_p": null, "addr_full": null, "addr_city": null, "source": null, "name_sw": null, "osm_id": 9134893317.0, "osm_type": "nodes" }, "geometry": { "type": "Point", "coordinates": [ 36.84422620218983, -1.265496986082202 ] } },
{ "type": "Feature", "properties": { "OBJECTID": 132, "name": "Valley view", "name_en": null, "amenity": "school", "building": null, "operator_t": "private", "capacity_p": null, "addr_full": null, "addr_city": null, "source": "KRCS2024", "name_sw": null, "osm_id": 11801760310.0, "osm_type": "nodes" }, "geometry": { "type": "Point", "coordinates": [ 36.85288400848286, -1.265074086023439 ] } },
{ "type": "Feature", "properties": { "OBJECTID": 133, "name": "Star education center", "name_en": null, "amenity": "school", "building": null, "operator_t": "private", "capacity_p": null, "addr_full": null, "addr_city": null, "source": "KRCS2024", "name_sw": null, "osm_id": 11801760311.0, "osm_type": "nodes" }, "geometry": { "type": "Point", "coordinates": [ 36.852393108575299, -1.26533738616575 ] } },
{ "type": "Feature", "properties": { "OBJECTID": 134, "name": "Kiboro primary school", "name_en": null, "amenity": "school", "building": null, "operator_t": "public", "capacity_p": null, "addr_full": null, "addr_city": null, "source": "KRCS2024", "name_sw": null, "osm_id": 11801760313.0, "osm_type": "nodes" }, "geometry": { "type": "Point", "coordinates": [ 36.853775909797463, -1.265827186606851 ] } },
{ "type": "Feature", "properties": { "OBJECTID": 135, "name": "St Philip school mathare", "name_en": null, "amenity": "school", "building": null, "operator_t": "private", "capacity_p": null, "addr_full": null, "addr_city": null, "source": "KRCS2024", "name_sw": null, "osm_id": 11801760316.0, "osm_type": "nodes" }, "geometry": { "type": "Point", "coordinates": [ 36.845260703020998, -1.264523785999978 ] } },
{ "type": "Feature", "properties": { "OBJECTID": 136, "name": "Joy community school", "name_en": null, "amenity": "school", "building": null, "operator_t": "private", "capacity_p": null, "addr_full": null, "addr_city": null, "source": "KRCS2024", "name_sw": null, "osm_id": 11801760317.0, "osm_type": "nodes" }, "geometry": { "type": "Point", "coordinates": [ 36.845004102886293, -1.265441386100825 ] } },
{ "type": "Feature", "properties": { "OBJECTID": 137, "name": "Spring view Secondary school", "name_en": null, "amenity": "school", "building": null, "operator_t": "private", "capacity_p": null, "addr_full": null, "addr_city": null, "source": "KRCS2024", "name_sw": null, "osm_id": 11801760319.0, "osm_type": "nodes" }, "geometry": { "type": "Point", "coordinates": [ 36.853265709009563, -1.264831385861052 ] } },
{ "type": "Feature", "properties": { "OBJECTID": 138, "name": "Destiny junior education center", "name_en": null, "amenity": "school", "building": null, "operator_t": "private", "capacity_p": null, "addr_full": null, "addr_city": null, "source": "KRCS2024", "name_sw": null, "osm_id": 11801760322.0, "osm_type": "nodes" }, "geometry": { "type": "Point", "coordinates": [ 36.854095309798772, -1.264391085361492 ] } },
{ "type": "Feature", "properties": { "OBJECTID": 139, "name": "Destiny community school", "name_en": null, "amenity": "school", "building": null, "operator_t": "private", "capacity_p": null, "addr_full": null, "addr_city": null, "source": "KRCS2024", "name_sw": null, "osm_id": 11801760323.0, "osm_type": "nodes" }, "geometry": { "type": "Point", "coordinates": [ 36.846095203240878, -1.265582886395263 ] } },
{ "type": "Feature", "properties": { "OBJECTID": 140, "name": "St Teresas girls primary and secondary school", "name_en": null, "amenity": "school", "building": null, "operator_t": "public", "capacity_p": null, "addr_full": null, "addr_city": null, "source": "KRCS2024", "name_sw": null, "osm_id": 11801760324.0, "osm_type": "nodes" }, "geometry": { "type": "Point", "coordinates": [ 36.84738820497634, -1.266389286834121 ] } },
{ "type": "Feature", "properties": { "OBJECTID": 141, "name": "Edom springs community school", "name_en": null, "amenity": "school", "building": null, "operator_t": "private", "capacity_p": null, "addr_full": null, "addr_city": null, "source": "KRCS2024", "name_sw": null, "osm_id": 11801760325.0, "osm_type": "nodes" }, "geometry": { "type": "Point", "coordinates": [ 36.84505670317899, -1.265608886384143 ] } },
{ "type": "Feature", "properties": { "OBJECTID": 142, "name": "Blessed education center", "name_en": null, "amenity": "school", "building": null, "operator_t": "private", "capacity_p": null, "addr_full": null, "addr_city": null, "source": "KRCS2024", "name_sw": null, "osm_id": 11801760327.0, "osm_type": "nodes" }, "geometry": { "type": "Point", "coordinates": [ 36.844048501900041, -1.26513798591256 ] } },
{ "type": "Feature", "properties": { "OBJECTID": 143, "name": "Neeves School", "name_en": null, "amenity": "school", "building": null, "operator_t": "religious", "capacity_p": null, "addr_full": null, "addr_city": null, "source": "KRCS2024", "name_sw": null, "osm_id": 11801760328.0, "osm_type": "nodes" }, "geometry": { "type": "Point", "coordinates": [ 36.849811206484844, -1.264719485919942 ] } },
{ "type": "Feature", "properties": { "OBJECTID": 144, "name": "Spring view school", "name_en": null, "amenity": "school", "building": null, "operator_t": "private", "capacity_p": null, "addr_full": null, "addr_city": null, "source": "KRCS2024", "name_sw": null, "osm_id": 11801760330.0, "osm_type": "nodes" }, "geometry": { "type": "Point", "coordinates": [ 36.853038308742391, -1.265304985853976 ] } },
{ "type": "Feature", "properties": { "OBJECTID": 145, "name": "Anajali Primary School", "name_en": null, "amenity": "school", "building": null, "operator_t": "private_for_profit", "capacity_p": null, "addr_full": null, "addr_city": null, "source": null, "name_sw": null, "osm_id": 5119233645.0, "osm_type": "nodes" }, "geometry": { "type": "Point", "coordinates": [ 36.779211953022923, -1.318718725620071 ] } },
{ "type": "Feature", "properties": { "OBJECTID": 146, "name": "Langata Junior Academy", "name_en": null, "amenity": "school", "building": null, "operator_t": null, "capacity_p": null, "addr_full": null, "addr_city": null, "source": null, "name_sw": null, "osm_id": 4166892389.0000005, "osm_type": "nodes" }, "geometry": { "type": "Point", "coordinates": [ 36.782046155071363, -1.328902433461096 ] } },
{ "type": "Feature", "properties": { "OBJECTID": 147, "name": "Kilimani Junior Academy", "name_en": null, "amenity": "school", "building": null, "operator_t": null, "capacity_p": null, "addr_full": null, "addr_city": null, "source": null, "name_sw": null, "osm_id": 4934449696.0, "osm_type": "nodes" }, "geometry": { "type": "Point", "coordinates": [ 36.745292027436811, -1.364610159314357 ] } },
{ "type": "Feature", "properties": { "OBJECTID": 148, "name": "Wilma Training Institute", "name_en": null, "amenity": "college", "building": null, "operator_t": "religious", "capacity_p": null, "addr_full": null, "addr_city": null, "source": "KRCS2024", "name_sw": null, "osm_id": 11801760333.0, "osm_type": "nodes" }, "geometry": { "type": "Point", "coordinates": [ 36.850105706994633, -1.264672785372547 ] } },
{ "type": "Feature", "properties": { "OBJECTID": 149, "name": "Lorento College Msongari", "name_en": null, "amenity": "college", "building": null, "operator_t": null, "capacity_p": null, "addr_full": null, "addr_city": null, "source": null, "name_sw": null, "osm_id": 5339122379.0, "osm_type": "nodes" }, "geometry": { "type": "Point", "coordinates": [ 36.769033645760778, -1.273593791838343 ] } },
{ "type": "Feature", "properties": { "OBJECTID": 150, "name": "Nairobi Great Commission School", "name_en": null, "amenity": "school", "building": null, "operator_t": null, "capacity_p": null, "addr_full": null, "addr_city": null, "source": null, "name_sw": null, "osm_id": 5361484408.0, "osm_type": "nodes" }, "geometry": { "type": "Point", "coordinates": [ 36.744756826415198, -1.374501366693855 ] } },
{ "type": "Feature", "properties": { "OBJECTID": 151, "name": "St. Elizabeth Boys High School", "name_en": null, "amenity": "school", "building": null, "operator_t": null, "capacity_p": null, "addr_full": null, "addr_city": null, "source": null, "name_sw": null, "osm_id": 5361484361.0, "osm_type": "nodes" }, "geometry": { "type": "Point", "coordinates": [ 36.691952687295391, -1.310395418707314 ] } },
{ "type": "Feature", "properties": { "OBJECTID": 152, "name": "Crayons Daycare And Kindergarten", "name_en": null, "amenity": "school", "building": null, "operator_t": null, "capacity_p": null, "addr_full": null, "addr_city": null, "source": null, "name_sw": null, "osm_id": 5333090842.0, "osm_type": "nodes" }, "geometry": { "type": "Point", "coordinates": [ 36.776935151489589, -1.251679675830107 ] } },
{ "type": "Feature", "properties": { "OBJECTID": 153, "name": "Petals Education Centre", "name_en": null, "amenity": "school", "building": null, "operator_t": "cbo", "capacity_p": null, "addr_full": null, "addr_city": null, "source": null, "name_sw": null, "osm_id": 5926195781.0, "osm_type": "nodes" }, "geometry": { "type": "Point", "coordinates": [ 36.736070621124341, -1.264211384731966 ] } },
{ "type": "Feature", "properties": { "OBJECTID": 154, "name": "Petals Education Centre", "name_en": null, "amenity": "school", "building": null, "operator_t": "cbo", "capacity_p": null, "addr_full": null, "addr_city": null, "source": null, "name_sw": null, "osm_id": 5926195783.0, "osm_type": "nodes" }, "geometry": { "type": "Point", "coordinates": [ 36.735993220637155, -1.264177184820692 ] } },
{ "type": "Feature", "properties": { "OBJECTID": 155, "name": "Community Education Centre", "name_en": null, "amenity": "school", "building": null, "operator_t": "cbo", "capacity_p": null, "addr_full": null, "addr_city": null, "source": null, "name_sw": null, "osm_id": 5922075121.0, "osm_type": "nodes" }, "geometry": { "type": "Point", "coordinates": [ 36.722890310820191, -1.256034678986692 ] } },
{ "type": "Feature", "properties": { "OBJECTID": 156, "name": "Dagoretti Corner Primary School", "name_en": null, "amenity": "school", "building": null, "operator_t": null, "capacity_p": null, "addr_full": null, "addr_city": null, "source": null, "name_sw": null, "osm_id": 5334971801.0, "osm_type": "nodes" }, "geometry": { "type": "Point", "coordinates": [ 36.753336833589387, -1.298232410337501 ] } },
{ "type": "Feature", "properties": { "OBJECTID": 157, "name": "Community Education Centre", "name_en": null, "amenity": "school", "building": null, "operator_t": "cbo", "capacity_p": null, "addr_full": null, "addr_city": null, "source": null, "name_sw": null, "osm_id": 5922075120.0, "osm_type": "nodes" }, "geometry": { "type": "Point", "coordinates": [ 36.72282221095427, -1.25602337890938 ] } },
{ "type": "Feature", "properties": { "OBJECTID": 158, "name": "Ack St Mary's School Kabete", "name_en": null, "amenity": "school", "building": null, "operator_t": "religious", "capacity_p": null, "addr_full": null, "addr_city": null, "source": null, "name_sw": null, "osm_id": 5926090740.000001, "osm_type": "nodes" }, "geometry": { "type": "Point", "coordinates": [ 36.723929011995089, -1.255709278349674 ] } },
{ "type": "Feature", "properties": { "OBJECTID": 159, "name": "rehema daycare school", "name_en": null, "amenity": "school", "building": null, "operator_t": null, "capacity_p": null, "addr_full": null, "addr_city": null, "source": null, "name_sw": null, "osm_id": 3723147504.0000005, "osm_type": "nodes" }, "geometry": { "type": "Point", "coordinates": [ 36.888791835621362, -1.251852676120351 ] } },
{ "type": "Feature", "properties": { "OBJECTID": 160, "name": "st.francis of asisi sec", "name_en": null, "amenity": "school", "building": null, "operator_t": null, "capacity_p": null, "addr_full": null, "addr_city": null, "source": null, "name_sw": null, "osm_id": 3723147509.0, "osm_type": "nodes" }, "geometry": { "type": "Point", "coordinates": [ 36.887565835250065, -1.252330876826018 ] } },
{ "type": "Feature", "properties": { "OBJECTID": 161, "name": "tartola child rescue and educational centre", "name_en": null, "amenity": "school", "building": null, "operator_t": null, "capacity_p": null, "addr_full": null, "addr_city": null, "source": null, "name_sw": null, "osm_id": 3723147510.0, "osm_type": "nodes" }, "geometry": { "type": "Point", "coordinates": [ 36.894953240276372, -1.246213772010718 ] } },
{ "type": "Feature", "properties": { "OBJECTID": 162, "name": "Hands Of Hope Child care centre", "name_en": null, "amenity": "school", "building": null, "operator_t": null, "capacity_p": null, "addr_full": null, "addr_city": null, "source": null, "name_sw": null, "osm_id": 1736275869.0000002, "osm_type": "nodes" }, "geometry": { "type": "Point", "coordinates": [ 36.887969935130002, -1.252835377418044 ] } },
{ "type": "Feature", "properties": { "OBJECTID": 163, "name": "Kabete Vet Lab Primary School", "name_en": null, "amenity": "school", "building": null, "operator_t": "government", "capacity_p": null, "addr_full": null, "addr_city": null, "source": null, "name_sw": null, "osm_id": 5915968853.000001, "osm_type": "nodes" }, "geometry": { "type": "Point", "coordinates": [ 36.722799710995048, -1.263184984354536 ] } },
{ "type": "Feature", "properties": { "OBJECTID": 164, "name": "Homescope Hostels", "name_en": null, "amenity": "school", "building": null, "operator_t": null, "capacity_p": null, "addr_full": null, "addr_city": "Nairobi", "source": null, "name_sw": null, "osm_id": 5401775769.0, "osm_type": "nodes" }, "geometry": { "type": "Point", "coordinates": [ 36.801617769954568, -1.302458813751523 ] } },
{ "type": "Feature", "properties": { "OBJECTID": 165, "name": "St Clares Primary School", "name_en": null, "amenity": "school", "building": null, "operator_t": null, "capacity_p": null, "addr_full": null, "addr_city": null, "source": null, "name_sw": null, "osm_id": 1736275941.0, "osm_type": "nodes" }, "geometry": { "type": "Point", "coordinates": [ 36.887247034725263, -1.251878076480368 ] } },
{ "type": "Feature", "properties": { "OBJECTID": 166, "name": "alliance vision high school", "name_en": null, "amenity": "school", "building": null, "operator_t": null, "capacity_p": null, "addr_full": null, "addr_city": null, "source": null, "name_sw": null, "osm_id": 3723143870.0, "osm_type": "nodes" }, "geometry": { "type": "Point", "coordinates": [ 36.895470040831405, -1.245380171929997 ] } },
{ "type": "Feature", "properties": { "OBJECTID": 167, "name": "bestan children centre", "name_en": null, "amenity": "school", "building": null, "operator_t": null, "capacity_p": null, "addr_full": null, "addr_city": null, "source": null, "name_sw": null, "osm_id": 3723143874.0, "osm_type": "nodes" }, "geometry": { "type": "Point", "coordinates": [ 36.887946734826642, -1.252675377239993 ] } },
{ "type": "Feature", "properties": { "OBJECTID": 168, "name": "bora afya school", "name_en": null, "amenity": "school", "building": null, "operator_t": null, "capacity_p": null, "addr_full": null, "addr_city": null, "source": null, "name_sw": null, "osm_id": 3723143877.9999995, "osm_type": "nodes" }, "geometry": { "type": "Point", "coordinates": [ 36.888202135825829, -1.250687075680107 ] } },
{ "type": "Feature", "properties": { "OBJECTID": 169, "name": "day shelter centre", "name_en": null, "amenity": "school", "building": null, "operator_t": null, "capacity_p": null, "addr_full": null, "addr_city": null, "source": null, "name_sw": null, "osm_id": 3723143887.0000005, "osm_type": "nodes" }, "geometry": { "type": "Point", "coordinates": [ 36.887014634177682, -1.251461976209924 ] } },
{ "type": "Feature", "properties": { "OBJECTID": 170, "name": "destiny primary", "name_en": null, "amenity": "school", "building": null, "operator_t": null, "capacity_p": null, "addr_full": null, "addr_city": null, "source": null, "name_sw": null, "osm_id": 3723143887.9999995, "osm_type": "nodes" }, "geometry": { "type": "Point", "coordinates": [ 36.888449235709082, -1.253842377711286 ] } },
{ "type": "Feature", "properties": { "OBJECTID": 171, "name": "good neighbours school", "name_en": null, "amenity": "school", "building": null, "operator_t": null, "capacity_p": null, "addr_full": null, "addr_city": null, "source": null, "name_sw": null, "osm_id": 3723143895.0, "osm_type": "nodes" }, "geometry": { "type": "Point", "coordinates": [ 36.890106836846854, -1.250193574848157 ] } },
{ "type": "Feature", "properties": { "OBJECTID": 172, "name": "great hope network centre", "name_en": null, "amenity": "school", "building": null, "operator_t": null, "capacity_p": null, "addr_full": null, "addr_city": null, "source": null, "name_sw": null, "osm_id": 3723143898.9999995, "osm_type": "nodes" }, "geometry": { "type": "Point", "coordinates": [ 36.891151937735785, -1.248787773737632 ] } },
{ "type": "Feature", "properties": { "OBJECTID": 173, "name": "haven primary", "name_en": null, "amenity": "school", "building": null, "operator_t": null, "capacity_p": null, "addr_full": null, "addr_city": null, "source": null, "name_sw": null, "osm_id": 3723143899.9999995, "osm_type": "nodes" }, "geometry": { "type": "Point", "coordinates": [ 36.890011336568485, -1.25033007552261 ] } },
{ "type": "Feature", "properties": { "OBJECTID": 174, "name": "highridge baptist boarding primary", "name_en": null, "amenity": "school", "building": null, "operator_t": null, "capacity_p": null, "addr_full": null, "addr_city": null, "source": null, "name_sw": null, "osm_id": 3723143901.0, "osm_type": "nodes" }, "geometry": { "type": "Point", "coordinates": [ 36.892504838302251, -1.250951975554349 ] } },
{ "type": "Feature", "properties": { "OBJECTID": 175, "name": "hope and care primary", "name_en": null, "amenity": "school", "building": null, "operator_t": null, "capacity_p": null, "addr_full": null, "addr_city": null, "source": null, "name_sw": null, "osm_id": 3723143909.0000005, "osm_type": "nodes" }, "geometry": { "type": "Point", "coordinates": [ 36.887121134669108, -1.254637478209547 ] } },
{ "type": "Feature", "properties": { "OBJECTID": 176, "name": "jambo toto primary", "name_en": null, "amenity": "school", "building": null, "operator_t": null, "capacity_p": null, "addr_full": null, "addr_city": null, "source": null, "name_sw": null, "osm_id": 3723143914.0, "osm_type": "nodes" }, "geometry": { "type": "Point", "coordinates": [ 36.886050433968698, -1.256062379254365 ] } },
{ "type": "Feature", "properties": { "OBJECTID": 177, "name": "kazi barasa baby care", "name_en": null, "amenity": "school", "building": null, "operator_t": null, "capacity_p": null, "addr_full": null, "addr_city": null, "source": null, "name_sw": null, "osm_id": 3723143918.0, "osm_type": "nodes" }, "geometry": { "type": "Point", "coordinates": [ 36.887193434968218, -1.251124375357834 ] } },
{ "type": "Feature", "properties": { "OBJECTID": 178, "name": "kenya foundation nursery school", "name_en": null, "amenity": "school", "building": null, "operator_t": null, "capacity_p": null, "addr_full": null, "addr_city": null, "source": null, "name_sw": null, "osm_id": 3723143919.0000005, "osm_type": "nodes" }, "geometry": { "type": "Point", "coordinates": [ 36.887717435497912, -1.25173707613254 ] } },
{ "type": "Feature", "properties": { "OBJECTID": 179, "name": "Daystar University (Nairobi campus)", "name_en": null, "amenity": "university", "building": null, "operator_t": null, "capacity_p": null, "addr_full": null, "addr_city": null, "source": null, "name_sw": null, "osm_id": 480762579.0, "osm_type": "nodes" }, "geometry": { "type": "Point", "coordinates": [ 36.80220327067547, -1.297370909684321 ] } },
{ "type": "Feature", "properties": { "OBJECTID": 180, "name": "Embakasi Benedicta Academy", "name_en": null, "amenity": "school", "building": null, "operator_t": "private", "capacity_p": null, "addr_full": null, "addr_city": null, "source": null, "name_sw": null, "osm_id": 9800781652.0, "osm_type": "nodes" }, "geometry": { "type": "Point", "coordinates": [ 36.967416195243757, -1.278719396371242 ] } },
{ "type": "Feature", "properties": { "OBJECTID": 181, "name": "Riara Group of Schools Grade 1", "name_en": null, "amenity": "school", "building": null, "operator_t": null, "capacity_p": null, "addr_full": null, "addr_city": "Nairobi", "source": null, "name_sw": null, "osm_id": 11681732671.0, "osm_type": "nodes" }, "geometry": { "type": "Point", "coordinates": [ 36.767439043881559, -1.298602710830152 ] } },
{ "type": "Feature", "properties": { "OBJECTID": 182, "name": "Riara Group of Schools Primary", "name_en": null, "amenity": "school", "building": null, "operator_t": null, "capacity_p": null, "addr_full": null, "addr_city": "Nairobi", "source": null, "name_sw": null, "osm_id": 1764155302.0, "osm_type": "nodes" }, "geometry": { "type": "Point", "coordinates": [ 36.770831846427299, -1.298773610495161 ] } },
{ "type": "Feature", "properties": { "OBJECTID": 183, "name": "Riara International School", "name_en": null, "amenity": "school", "building": null, "operator_t": null, "capacity_p": null, "addr_full": null, "addr_city": "Nairobi", "source": null, "name_sw": null, "osm_id": 11681732672.0, "osm_type": "nodes" }, "geometry": { "type": "Point", "coordinates": [ 36.767900644859054, -1.29845011027214 ] } },
{ "type": "Feature", "properties": { "OBJECTID": 184, "name": "Kibera Day ECD", "name_en": null, "amenity": "school", "building": null, "operator_t": "religious", "capacity_p": null, "addr_full": null, "addr_city": null, "source": "Map Kibera Trust", "name_sw": null, "osm_id": 890550633.00000012, "osm_type": "nodes" }, "geometry": { "type": "Point", "coordinates": [ 36.782304055426238, -1.311525920440334 ] } },
{ "type": "Feature", "properties": { "OBJECTID": 185, "name": "Raila Educational Centre", "name_en": null, "amenity": "school", "building": null, "operator_t": "government", "capacity_p": null, "addr_full": null, "addr_city": null, "source": null, "name_sw": null, "osm_id": 890550666.0, "osm_type": "nodes" }, "geometry": { "type": "Point", "coordinates": [ 36.783466256520398, -1.312605621411319 ] } },
{ "type": "Feature", "properties": { "OBJECTID": 186, "name": "Raila Educational Centre", "name_en": null, "amenity": "school", "building": null, "operator_t": "government", "capacity_p": null, "addr_full": null, "addr_city": null, "source": null, "name_sw": null, "osm_id": 5134869729.0, "osm_type": "nodes" }, "geometry": { "type": "Point", "coordinates": [ 36.783474156217949, -1.3125773209243 ] } },
{ "type": "Feature", "properties": { "OBJECTID": 187, "name": "New Hope Academy", "name_en": null, "amenity": "school", "building": null, "operator_t": "cbo", "capacity_p": null, "addr_full": null, "addr_city": null, "source": null, "name_sw": null, "osm_id": 5170840100.0, "osm_type": "nodes" }, "geometry": { "type": "Point", "coordinates": [ 36.784293256754601, -1.312615221082846 ] } },
{ "type": "Feature", "properties": { "OBJECTID": 188, "name": "Codman Academy", "name_en": null, "amenity": "school", "building": null, "operator_t": "cbo", "capacity_p": null, "addr_full": null, "addr_city": null, "source": null, "name_sw": null, "osm_id": 4457507291.0, "osm_type": "nodes" }, "geometry": { "type": "Point", "coordinates": [ 36.857421712048087, -1.26532318638799 ] } },
{ "type": "Feature", "properties": { "OBJECTID": 189, "name": "Community Care Educational Organization", "name_en": null, "amenity": "school", "building": null, "operator_t": "cbo", "capacity_p": null, "addr_full": null, "addr_city": null, "source": null, "name_sw": null, "osm_id": 4461458488.0, "osm_type": "nodes" }, "geometry": { "type": "Point", "coordinates": [ 36.852023507910211, -1.265714186843543 ] } },
{ "type": "Feature", "properties": { "OBJECTID": 190, "name": "Jorum Education Center", "name_en": null, "amenity": "school", "building": null, "operator_t": "private", "capacity_p": null, "addr_full": null, "addr_city": null, "source": null, "name_sw": null, "osm_id": 4461519044.0, "osm_type": "nodes" }, "geometry": { "type": "Point", "coordinates": [ 36.851725907517611, -1.265147886536145 ] } },
{ "type": "Feature", "properties": { "OBJECTID": 191, "name": "Gitathuru Mission Of Hope", "name_en": null, "amenity": "school", "building": null, "operator_t": "religious", "capacity_p": null, "addr_full": null, "addr_city": null, "source": null, "name_sw": null, "osm_id": 4464506028.0, "osm_type": "nodes" }, "geometry": { "type": "Point", "coordinates": [ 36.85532361100929, -1.26267838468028 ] } },
{ "type": "Feature", "properties": { "OBJECTID": 192, "name": "Maana Academy", "name_en": null, "amenity": "school", "building": null, "operator_t": "religious", "capacity_p": null, "addr_full": null, "addr_city": null, "source": null, "name_sw": null, "osm_id": 4465955077.0, "osm_type": "nodes" }, "geometry": { "type": "Point", "coordinates": [ 36.858235213227282, -1.263631384650917 ] } },
{ "type": "Feature", "properties": { "OBJECTID": 193, "name": "Hope Compassion Center", "name_en": null, "amenity": "school", "building": null, "operator_t": "cbo", "capacity_p": null, "addr_full": null, "addr_city": null, "source": null, "name_sw": null, "osm_id": 4467561521.0, "osm_type": "nodes" }, "geometry": { "type": "Point", "coordinates": [ 36.853893709263012, -1.261129283070371 ] } },
{ "type": "Feature", "properties": { "OBJECTID": 194, "name": "ACK Gitathuru Academy", "name_en": null, "amenity": "school", "building": null, "operator_t": "private", "capacity_p": null, "addr_full": null, "addr_city": null, "source": null, "name_sw": null, "osm_id": 4467561523.0, "osm_type": "nodes" }, "geometry": { "type": "Point", "coordinates": [ 36.854794310194691, -1.261957783542854 ] } },
{ "type": "Feature", "properties": { "OBJECTID": 195, "name": "New Hope Academy", "name_en": null, "amenity": "school", "building": null, "operator_t": "cbo", "capacity_p": null, "addr_full": null, "addr_city": null, "source": null, "name_sw": null, "osm_id": 5170840099.0, "osm_type": "nodes" }, "geometry": { "type": "Point", "coordinates": [ 36.784272557264643, -1.312617921125616 ] } },
{ "type": "Feature", "properties": { "OBJECTID": 196, "name": "The Green Pastures School", "name_en": null, "amenity": "school", "building": null, "operator_t": "private", "capacity_p": null, "addr_full": null, "addr_city": null, "source": null, "name_sw": null, "osm_id": 2923814193.0, "osm_type": "nodes" }, "geometry": { "type": "Point", "coordinates": [ 36.78371035671934, -1.310729619833003 ] } },
{ "type": "Feature", "properties": { "OBJECTID": 197, "name": "Inspiration Baby College", "name_en": null, "amenity": "school", "building": null, "operator_t": "religious", "capacity_p": null, "addr_full": null, "addr_city": null, "source": null, "name_sw": null, "osm_id": 1038103774.0, "osm_type": "nodes" }, "geometry": { "type": "Point", "coordinates": [ 36.857701912235179, -1.265487686115593 ] } },
{ "type": "Feature", "properties": { "OBJECTID": 198, "name": "AIC Zion High School", "name_en": null, "amenity": "school", "building": null, "operator_t": "religious", "capacity_p": null, "addr_full": null, "addr_city": null, "source": null, "name_sw": null, "osm_id": 4456611009.0, "osm_type": "nodes" }, "geometry": { "type": "Point", "coordinates": [ 36.862285616232754, -1.263267584671689 ] } },
{ "type": "Feature", "properties": { "OBJECTID": 199, "name": "Fountain Preparatory School", "name_en": null, "amenity": "school", "building": null, "operator_t": "cbo", "capacity_p": null, "addr_full": null, "addr_city": null, "source": null, "name_sw": null, "osm_id": 4461510623.0, "osm_type": "nodes" }, "geometry": { "type": "Point", "coordinates": [ 36.860135414582942, -1.263122684837198 ] } },
{ "type": "Feature", "properties": { "OBJECTID": 200, "name": "Glorious Education Center", "name_en": null, "amenity": "school", "building": null, "operator_t": "religious", "capacity_p": null, "addr_full": null, "addr_city": null, "source": null, "name_sw": null, "osm_id": 4462937714.0, "osm_type": "nodes" }, "geometry": { "type": "Point", "coordinates": [ 36.855964811164128, -1.263531484953358 ] } },
{ "type": "Feature", "properties": { "OBJECTID": 201, "name": "Anaweza Education Centre", "name_en": null, "amenity": "school", "building": null, "operator_t": "cbo", "capacity_p": null, "addr_full": null, "addr_city": null, "source": null, "name_sw": null, "osm_id": 4464506027.0, "osm_type": "nodes" }, "geometry": { "type": "Point", "coordinates": [ 36.856217111418758, -1.262929284500272 ] } },
{ "type": "Feature", "properties": { "OBJECTID": 202, "name": "Maji Mazuri Headstart Academy", "name_en": null, "amenity": "school", "building": null, "operator_t": "cbo", "capacity_p": null, "addr_full": null, "addr_city": null, "source": null, "name_sw": null, "osm_id": 4464601890.0, "osm_type": "nodes" }, "geometry": { "type": "Point", "coordinates": [ 36.859417313907819, -1.264380085807957 ] } },
{ "type": "Feature", "properties": { "OBJECTID": 203, "name": "Pillar Day Care", "name_en": null, "amenity": "school", "building": null, "operator_t": "private", "capacity_p": null, "addr_full": null, "addr_city": null, "source": null, "name_sw": null, "osm_id": 4467530209.0, "osm_type": "nodes" }, "geometry": { "type": "Point", "coordinates": [ 36.857173911857558, -1.263045284752824 ] } },
{ "type": "Feature", "properties": { "OBJECTID": 204, "name": "Genesis Joy Primary School", "name_en": null, "amenity": "school", "building": null, "operator_t": "private", "capacity_p": null, "addr_full": null, "addr_city": null, "source": null, "name_sw": null, "osm_id": 4467561520.0, "osm_type": "nodes" }, "geometry": { "type": "Point", "coordinates": [ 36.854711709910291, -1.26140198333004 ] } },
{ "type": "Feature", "properties": { "OBJECTID": 205, "name": "City prime Secondary school", "name_en": null, "amenity": "school", "building": null, "operator_t": null, "capacity_p": null, "addr_full": null, "addr_city": null, "source": null, "name_sw": null, "osm_id": 4210799128.0, "osm_type": "nodes" }, "geometry": { "type": "Point", "coordinates": [ 36.744752526977273, -1.300934012111247 ] } },
{ "type": "Feature", "properties": { "OBJECTID": 206, "name": "KAG Olympic Education Centre", "name_en": null, "amenity": "school", "building": null, "operator_t": "religious", "capacity_p": null, "addr_full": null, "addr_city": null, "source": null, "name_sw": null, "osm_id": 2932284091.0, "osm_type": "nodes" }, "geometry": { "type": "Point", "coordinates": [ 36.777830452092026, -1.31472182292334 ] } },
{ "type": "Feature", "properties": { "OBJECTID": 207, "name": "Rem Outreach Community Centre", "name_en": null, "amenity": "school", "building": null, "operator_t": "religious", "capacity_p": null, "addr_full": null, "addr_city": null, "source": null, "name_sw": null, "osm_id": 5112486230.0, "osm_type": "nodes" }, "geometry": { "type": "Point", "coordinates": [ 36.771988447354801, -1.30995661921105 ] } },
{ "type": "Feature", "properties": { "OBJECTID": 208, "name": "Rem Outreach Community Centre", "name_en": null, "amenity": "school", "building": null, "operator_t": "religious", "capacity_p": null, "addr_full": null, "addr_city": null, "source": null, "name_sw": null, "osm_id": 5112486231.0, "osm_type": "nodes" }, "geometry": { "type": "Point", "coordinates": [ 36.771995147978743, -1.309970019454634 ] } },
{ "type": "Feature", "properties": { "OBJECTID": 209, "name": "Hope Academy", "name_en": null, "amenity": "school", "building": null, "operator_t": "cbo", "capacity_p": null, "addr_full": null, "addr_city": null, "source": null, "name_sw": null, "osm_id": 2968577923.0, "osm_type": "nodes" }, "geometry": { "type": "Point", "coordinates": [ 36.779975353914772, -1.318649525391705 ] } },
{ "type": "Feature", "properties": { "OBJECTID": 210, "name": "Creative Best Care Academy", "name_en": null, "amenity": "school", "building": null, "operator_t": "private", "capacity_p": null, "addr_full": null, "addr_city": null, "source": null, "name_sw": null, "osm_id": 5915900142.0, "osm_type": "nodes" }, "geometry": { "type": "Point", "coordinates": [ 36.716265005898215, -1.263673784713023 ] } },
{ "type": "Feature", "properties": { "OBJECTID": 211, "name": "Gibens Blessed Academy", "name_en": null, "amenity": "school", "building": null, "operator_t": "private", "capacity_p": null, "addr_full": null, "addr_city": null, "source": null, "name_sw": null, "osm_id": 8371063327.0, "osm_type": "nodes" }, "geometry": { "type": "Point", "coordinates": [ 36.744609227477874, -1.297345609609982 ] } },
{ "type": "Feature", "properties": { "OBJECTID": 212, "name": "Chrisco Educational Centre", "name_en": null, "amenity": "school", "building": null, "operator_t": "religious", "capacity_p": null, "addr_full": null, "addr_city": null, "source": null, "name_sw": null, "osm_id": 3073056064.0, "osm_type": "nodes" }, "geometry": { "type": "Point", "coordinates": [ 36.777072251394216, -1.306657416921899 ] } },
{ "type": "Feature", "properties": { "OBJECTID": 213, "name": "Joysprings Educational Centre", "name_en": null, "amenity": "school", "building": null, "operator_t": "religious", "capacity_p": null, "addr_full": null, "addr_city": null, "source": null, "name_sw": null, "osm_id": 2923814196.0, "osm_type": "nodes" }, "geometry": { "type": "Point", "coordinates": [ 36.774885149420292, -1.312141621166284 ] } },
{ "type": "Feature", "properties": { "OBJECTID": 214, "name": "Tunza Children Center", "name_en": null, "amenity": "school", "building": null, "operator_t": "cbo", "capacity_p": null, "addr_full": null, "addr_city": null, "source": null, "name_sw": null, "osm_id": 3004383269.0000005, "osm_type": "nodes" }, "geometry": { "type": "Point", "coordinates": [ 36.776958451496078, -1.312498520837815 ] } },
{ "type": "Feature", "properties": { "OBJECTID": 215, "name": "Ndurarua Primary School", "name_en": null, "amenity": "school", "building": null, "operator_t": "county_government", "capacity_p": null, "addr_full": null, "addr_city": "Nairobi", "source": null, "name_sw": null, "osm_id": 8371428687.0, "osm_type": "nodes" }, "geometry": { "type": "Point", "coordinates": [ 36.740473224238364, -1.289552904013839 ] } },
{ "type": "Feature", "properties": { "OBJECTID": 216, "name": "KMTC College of Nutrition", "name_en": null, "amenity": "college", "building": null, "operator_t": null, "capacity_p": null, "addr_full": null, "addr_city": null, "source": null, "name_sw": null, "osm_id": 714721590.0, "osm_type": "nodes" }, "geometry": { "type": "Point", "coordinates": [ 36.713359903286879, -1.351252349250169 ] } },
{ "type": "Feature", "properties": { "OBJECTID": 217, "name": "AIC baby cace comacial", "name_en": null, "amenity": "school", "building": null, "operator_t": null, "capacity_p": null, "addr_full": null, "addr_city": null, "source": null, "name_sw": null, "osm_id": 1483304293.0, "osm_type": "nodes" }, "geometry": { "type": "Point", "coordinates": [ 36.838835597618349, -1.307202316985185 ] } },
{ "type": "Feature", "properties": { "OBJECTID": 218, "name": "Bright star Secondary and Primary school", "name_en": null, "amenity": "school", "building": null, "operator_t": null, "capacity_p": null, "addr_full": null, "addr_city": null, "source": null, "name_sw": null, "osm_id": 1483304294.0, "osm_type": "nodes" }, "geometry": { "type": "Point", "coordinates": [ 36.840405099049171, -1.306710216915926 ] } },
{ "type": "Feature", "properties": { "OBJECTID": 219, "name": "St. Mary Immaculate School - Mihango", "name_en": null, "amenity": "school", "building": null, "operator_t": null, "capacity_p": null, "addr_full": null, "addr_city": null, "source": null, "name_sw": null, "osm_id": 5501772222.0, "osm_type": "nodes" }, "geometry": { "type": "Point", "coordinates": [ 36.947380979965125, -1.270441390264322 ] } },
{ "type": "Feature", "properties": { "OBJECTID": 220, "name": "FPFK Gatwekera School", "name_en": null, "amenity": "school", "building": null, "operator_t": "religious", "capacity_p": null, "addr_full": null, "addr_city": null, "source": null, "name_sw": null, "osm_id": 2952187218.0, "osm_type": "nodes" }, "geometry": { "type": "Point", "coordinates": [ 36.779624953289471, -1.316186923607996 ] } },
{ "type": "Feature", "properties": { "OBJECTID": 221, "name": "Brainstorm Junior School", "name_en": null, "amenity": "school", "building": null, "operator_t": "private", "capacity_p": null, "addr_full": null, "addr_city": null, "source": null, "name_sw": null, "osm_id": 3454416004.0000005, "osm_type": "nodes" }, "geometry": { "type": "Point", "coordinates": [ 36.780749954523365, -1.31445262275727 ] } },
{ "type": "Feature", "properties": { "OBJECTID": 222, "name": "St Catherine Children and Educational Centre", "name_en": null, "amenity": "school", "building": null, "operator_t": "private", "capacity_p": null, "addr_full": null, "addr_city": null, "source": null, "name_sw": null, "osm_id": 2923815707.0, "osm_type": "nodes" }, "geometry": { "type": "Point", "coordinates": [ 36.775281750084879, -1.315361023396205 ] } },
{ "type": "Feature", "properties": { "OBJECTID": 223, "name": "Bridge International Academy", "name_en": null, "amenity": "school", "building": null, "operator_t": null, "capacity_p": null, "addr_full": null, "addr_city": null, "source": null, "name_sw": null, "osm_id": 2405823263.0, "osm_type": "nodes" }, "geometry": { "type": "Point", "coordinates": [ 36.882793231599436, -1.247602473156582 ] } },
{ "type": "Feature", "properties": { "OBJECTID": 224, "name": "Clare Baby and Primary School", "name_en": null, "amenity": "school", "building": null, "operator_t": null, "capacity_p": null, "addr_full": null, "addr_city": null, "source": null, "name_sw": null, "osm_id": 2405823267.0, "osm_type": "nodes" }, "geometry": { "type": "Point", "coordinates": [ 36.883434332213376, -1.249399974745389 ] } },
{ "type": "Feature", "properties": { "OBJECTID": 225, "name": "Emaculate secondary school", "name_en": null, "amenity": "school", "building": null, "operator_t": null, "capacity_p": null, "addr_full": null, "addr_city": null, "source": null, "name_sw": null, "osm_id": 2405823274.0, "osm_type": "nodes" }, "geometry": { "type": "Point", "coordinates": [ 36.883283131891211, -1.249145474497565 ] } },
{ "type": "Feature", "properties": { "OBJECTID": 226, "name": "Genesis Primary School", "name_en": null, "amenity": "school", "building": null, "operator_t": null, "capacity_p": null, "addr_full": null, "addr_city": null, "source": null, "name_sw": null, "osm_id": 2405823276.0, "osm_type": "nodes" }, "geometry": { "type": "Point", "coordinates": [ 36.883770032064049, -1.247786972857786 ] } },
{ "type": "Feature", "properties": { "OBJECTID": 227, "name": "Genesis Secondary School", "name_en": null, "amenity": "school", "building": null, "operator_t": null, "capacity_p": null, "addr_full": null, "addr_city": null, "source": null, "name_sw": null, "osm_id": 2405823277.0, "osm_type": "nodes" }, "geometry": { "type": "Point", "coordinates": [ 36.882784431827289, -1.249118074222385 ] } },
{ "type": "Feature", "properties": { "OBJECTID": 228, "name": "Motilone Education Centre", "name_en": null, "amenity": "school", "building": null, "operator_t": null, "capacity_p": null, "addr_full": null, "addr_city": null, "source": null, "name_sw": null, "osm_id": 2405823293.0, "osm_type": "nodes" }, "geometry": { "type": "Point", "coordinates": [ 36.884330132618018, -1.24804867383446 ] } },
{ "type": "Feature", "properties": { "OBJECTID": 229, "name": "High vision high school", "name_en": null, "amenity": "school", "building": null, "operator_t": null, "capacity_p": null, "addr_full": null, "addr_city": null, "source": null, "name_sw": null, "osm_id": 2405836246.0, "osm_type": "nodes" }, "geometry": { "type": "Point", "coordinates": [ 36.89341563897122, -1.243422970101904 ] } },
{ "type": "Feature", "properties": { "OBJECTID": 230, "name": "Six to six academy", "name_en": null, "amenity": "school", "building": null, "operator_t": null, "capacity_p": null, "addr_full": null, "addr_city": null, "source": null, "name_sw": null, "osm_id": 2405836303.0, "osm_type": "nodes" }, "geometry": { "type": "Point", "coordinates": [ 36.902393745894251, -1.238172666366834 ] } },
{ "type": "Feature", "properties": { "OBJECTID": 231, "name": "Jack and Jill primary school", "name_en": null, "amenity": "school", "building": null, "operator_t": null, "capacity_p": null, "addr_full": null, "addr_city": null, "source": null, "name_sw": null, "osm_id": 2405829024.0, "osm_type": "nodes" }, "geometry": { "type": "Point", "coordinates": [ 36.884933332970547, -1.240590367795207 ] } },
{ "type": "Feature", "properties": { "OBJECTID": 232, "name": "Jack and Jill primary school", "name_en": null, "amenity": "school", "building": null, "operator_t": null, "capacity_p": null, "addr_full": null, "addr_city": null, "source": null, "name_sw": null, "osm_id": 2405829025.0, "osm_type": "nodes" }, "geometry": { "type": "Point", "coordinates": [ 36.884965533395771, -1.240806567804239 ] } },
{ "type": "Feature", "properties": { "OBJECTID": 233, "name": "MM Chandaria primary school", "name_en": null, "amenity": "school", "building": null, "operator_t": null, "capacity_p": null, "addr_full": null, "addr_city": null, "source": null, "name_sw": null, "osm_id": 2405829028.0, "osm_type": "nodes" }, "geometry": { "type": "Point", "coordinates": [ 36.885090233281943, -1.244091970617382 ] } },
{ "type": "Feature", "properties": { "OBJECTID": 234, "name": "Acts preparatory school", "name_en": null, "amenity": "school", "building": null, "operator_t": null, "capacity_p": null, "addr_full": null, "addr_city": null, "source": null, "name_sw": null, "osm_id": 2405836195.0, "osm_type": "nodes" }, "geometry": { "type": "Point", "coordinates": [ 36.896107141171036, -1.238041966095097 ] } },
{ "type": "Feature", "properties": { "OBJECTID": 235, "name": "Tender heart juniour school", "name_en": null, "amenity": "school", "building": null, "operator_t": null, "capacity_p": null, "addr_full": null, "addr_city": null, "source": null, "name_sw": null, "osm_id": 2405836315.0, "osm_type": "nodes" }, "geometry": { "type": "Point", "coordinates": [ 36.895148540798317, -1.23931256747036 ] } },
{ "type": "Feature", "properties": { "OBJECTID": 236, "name": "Tiba juniour academy", "name_en": null, "amenity": "school", "building": null, "operator_t": null, "capacity_p": null, "addr_full": null, "addr_city": null, "source": null, "name_sw": null, "osm_id": 2405836316.0, "osm_type": "nodes" }, "geometry": { "type": "Point", "coordinates": [ 36.894254940091948, -1.2414477687837 ] } },
{ "type": "Feature", "properties": { "OBJECTID": 237, "name": "St Patric juniour academy", "name_en": null, "amenity": "school", "building": null, "operator_t": null, "capacity_p": null, "addr_full": null, "addr_city": null, "source": null, "name_sw": null, "osm_id": 2405798449.0, "osm_type": "nodes" }, "geometry": { "type": "Point", "coordinates": [ 36.888622235756678, -1.244079570206567 ] } },
{ "type": "Feature", "properties": { "OBJECTID": 238, "name": "Tiba junior academy", "name_en": null, "amenity": "school", "building": null, "operator_t": null, "capacity_p": null, "addr_full": null, "addr_city": null, "source": null, "name_sw": null, "osm_id": 2405798450.0, "osm_type": "nodes" }, "geometry": { "type": "Point", "coordinates": [ 36.893816039831286, -1.241668868466444 ] } },
{ "type": "Feature", "properties": { "OBJECTID": 239, "name": "Mount Laverna Academy", "name_en": null, "amenity": "school", "building": null, "operator_t": null, "capacity_p": null, "addr_full": null, "addr_city": "Nairobi", "source": null, "name_sw": null, "osm_id": 6826671306.000001, "osm_type": "nodes" }, "geometry": { "type": "Point", "coordinates": [ 36.917575457858803, -1.224234055548762 ] } },
{ "type": "Feature", "properties": { "OBJECTID": 240, "name": "National Youth Service Headquarters", "name_en": null, "amenity": "college", "building": null, "operator_t": null, "capacity_p": null, "addr_full": null, "addr_city": "Nairobi", "source": null, "name_sw": null, "osm_id": 5106250785.0, "osm_type": "nodes" }, "geometry": { "type": "Point", "coordinates": [ 36.855031710408809, -1.256084379616039 ] } },
{ "type": "Feature", "properties": { "OBJECTID": 241, "name": "ACK computer college", "name_en": null, "amenity": "college", "building": null, "operator_t": null, "capacity_p": null, "addr_full": null, "addr_city": null, "source": null, "name_sw": null, "osm_id": 2405836190.0, "osm_type": "nodes" }, "geometry": { "type": "Point", "coordinates": [ 36.895874540856759, -1.241973468852003 ] } },
{ "type": "Feature", "properties": { "OBJECTID": 242, "name": "Abbey computer college", "name_en": null, "amenity": "college", "building": null, "operator_t": null, "capacity_p": null, "addr_full": null, "addr_city": null, "source": null, "name_sw": null, "osm_id": 2405836193.0, "osm_type": "nodes" }, "geometry": { "type": "Point", "coordinates": [ 36.893926039881975, -1.241656368535147 ] } },
{ "type": "Feature", "properties": { "OBJECTID": 243, "name": "Nile Road Girls Secondary", "name_en": null, "amenity": "school", "building": null, "operator_t": null, "capacity_p": null, "addr_full": null, "addr_city": "Nairobi", "source": null, "name_sw": null, "osm_id": 6817508245.000001, "osm_type": "nodes" }, "geometry": { "type": "Point", "coordinates": [ 36.868307619954606, -1.296122609103324 ] } },
{ "type": "Feature", "properties": { "OBJECTID": 244, "name": "Lanet Highway Academy", "name_en": null, "amenity": "school", "building": null, "operator_t": null, "capacity_p": null, "addr_full": null, "addr_city": null, "source": null, "name_sw": null, "osm_id": 7686965503.000001, "osm_type": "nodes" }, "geometry": { "type": "Point", "coordinates": [ 36.77009024639986, -1.243703469612779 ] } },
{ "type": "Feature", "properties": { "OBJECTID": 245, "name": null, "name_en": null, "amenity": "school", "building": null, "operator_t": null, "capacity_p": null, "addr_full": null, "addr_city": null, "source": null, "name_sw": null, "osm_id": 1875584928.0, "osm_type": "nodes" }, "geometry": { "type": "Point", "coordinates": [ 36.918109957962088, -1.221737054323979 ] } },
{ "type": "Feature", "properties": { "OBJECTID": 246, "name": "Blue Star Children Centre", "name_en": null, "amenity": "school", "building": null, "operator_t": "community", "capacity_p": null, "addr_full": null, "addr_city": null, "source": null, "name_sw": null, "osm_id": 12816654307.0, "osm_type": "nodes" }, "geometry": { "type": "Point", "coordinates": [ 36.752217232970494, -1.262853984412887 ] } },
{ "type": "Feature", "properties": { "OBJECTID": 247, "name": "Gsu Primary School", "name_en": null, "amenity": "school", "building": null, "operator_t": "local_government_authority", "capacity_p": null, "addr_full": null, "addr_city": null, "source": null, "name_sw": null, "osm_id": 12816654308.999998, "osm_type": "nodes" }, "geometry": { "type": "Point", "coordinates": [ 36.861192114999838, -1.238230966438456 ] } },
{ "type": "Feature", "properties": { "OBJECTID": 248, "name": "Mahiga Primary School", "name_en": null, "amenity": "school", "building": null, "operator_t": "local_government_authority", "capacity_p": null, "addr_full": null, "addr_city": null, "source": null, "name_sw": null, "osm_id": 12816654319.0, "osm_type": "nodes" }, "geometry": { "type": "Point", "coordinates": [ 36.897854442649617, -1.181267023714993 ] } },