{
"type": "FeatureCollection",
"name": "towncentres",
"crs": { "type": "name", "properties": { "name": "urn:ogc:def:crs:OGC:1.3:CRS84" } },
"features": [
{ "type": "Feature", "properties": { "OBJECTID": 1, "name": "Simba Villas", "name_en": null, "place": null, "landuse": "residential", "population": null, "is_in": null, "source": null, "name_sw": null, "osm_id": 8168708776.0, "osm_type": "nodes" }, "geometry": { "type": "Point", "coordinates": [ 36.920992159409202, -1.309887320055139 ] } },
{ "type": "Feature", "properties": { "OBJECTID": 2, "name": "GENESIS APARTMENTS", "name_en": null, "place": null, "landuse": "residential", "population": null, "is_in": null, "source": null, "name_sw": null, "osm_id": 8158494607.0, "osm_type": "nodes" }, "geometry": { "type": "Point", "coordinates": [ 36.903414847015341, -1.300180112691833 ] } },
{ "type": "Feature", "properties": { "OBJECTID": 3, "name": "Paradise flats", "name_en": null, "place": null, "landuse": "residential", "population": null, "is_in": null, "source": null, "name_sw": null, "osm_id": 8152428659.0, "osm_type": "nodes" }, "geometry": { "type": "Point", "coordinates": [ 36.907677950122775, -1.298443311185359 ] } },
{ "type": "Feature", "properties": { "OBJECTID": 4, "name": "Black Rose Apartments", "name_en": null, "place": null, "landuse": "residential", "population": null, "is_in": null, "source": null, "name_sw": null, "osm_id": 630730467.0, "osm_type": "nodes" }, "geometry": { "type": "Point", "coordinates": [ 36.781502854936974, -1.292314105751112 ] } },
{ "type": "Feature", "properties": { "OBJECTID": 5, "name": "Kiamutisya", "name_en": null, "place": "village", "landuse": null, "population": null, "is_in": null, "source": "KRCS2024", "name_sw": null, "osm_id": 11801871680.0, "osm_type": "nodes" }, "geometry": { "type": "Point", "coordinates": [ 36.844826002411736, -1.264198084974547 ] } },
{ "type": "Feature", "properties": { "OBJECTID": 6, "name": "3A", "name_en": null, "place": "village", "landuse": null, "population": null, "is_in": null, "source": "KRCS2024", "name_sw": null, "osm_id": 11801871683.0, "osm_type": "nodes" }, "geometry": { "type": "Point", "coordinates": [ 36.855606111105409, -1.265840786512741 ] } },
{ "type": "Feature", "properties": { "OBJECTID": 7, "name": "Kyamutisya village", "name_en": null, "place": "village", "landuse": null, "population": null, "is_in": null, "source": "KRCS2024", "name_sw": null, "osm_id": 11801871684.0, "osm_type": "nodes" }, "geometry": { "type": "Point", "coordinates": [ 36.844590702206752, -1.263891385124668 ] } },
{ "type": "Feature", "properties": { "OBJECTID": 8, "name": "Mlango", "name_en": null, "place": "village", "landuse": null, "population": null, "is_in": null, "source": "KRCS2024", "name_sw": null, "osm_id": 11801871686.0, "osm_type": "nodes" }, "geometry": { "type": "Point", "coordinates": [ 36.845403602944906, -1.265433185872755 ] } },
{ "type": "Feature", "properties": { "OBJECTID": 9, "name": "Tsavo Skywalk", "name_en": null, "place": null, "landuse": "residential", "population": null, "is_in": null, "source": null, "name_sw": null, "osm_id": 11748509001.0, "osm_type": "nodes" }, "geometry": { "type": "Point", "coordinates": [ 36.751606332078438, -1.29723490939922 ] } },
{ "type": "Feature", "properties": { "OBJECTID": 10, "name": "Mathare", "name_en": null, "place": "village", "landuse": null, "population": null, "is_in": null, "source": null, "name_sw": null, "osm_id": 11155030940.0, "osm_type": "nodes" }, "geometry": { "type": "Point", "coordinates": [ 36.84955750618505, -1.265038885909209 ] } },
{ "type": "Feature", "properties": { "OBJECTID": 11, "name": "Gachui", "name_en": null, "place": "village", "landuse": null, "population": null, "is_in": null, "source": null, "name_sw": null, "osm_id": 11665215230.0, "osm_type": "nodes" }, "geometry": { "type": "Point", "coordinates": [ 36.695931691084581, -1.282452698021215 ] } },
{ "type": "Feature", "properties": { "OBJECTID": 12, "name": "Gathondeki", "name_en": null, "place": "village", "landuse": null, "population": null, "is_in": null, "source": null, "name_sw": null, "osm_id": 11665215231.0, "osm_type": "nodes" }, "geometry": { "type": "Point", "coordinates": [ 36.731498417373075, -1.273898592152064 ] } },
{ "type": "Feature", "properties": { "OBJECTID": 13, "name": "Gichungo", "name_en": null, "place": "village", "landuse": null, "population": null, "is_in": null, "source": null, "name_sw": null, "osm_id": 11665215235.0, "osm_type": "nodes" }, "geometry": { "type": "Point", "coordinates": [ 36.693599188854549, -1.27353169175882 ] } },
{ "type": "Feature", "properties": { "OBJECTID": 14, "name": "Breezes", "name_en": null, "place": null, "landuse": "residential", "population": null, "is_in": null, "source": null, "name_sw": null, "osm_id": 7596733191.0, "osm_type": "nodes" }, "geometry": { "type": "Point", "coordinates": [ 36.784089756988209, -1.264812485407485 ] } },
{ "type": "Feature", "properties": { "OBJECTID": 15, "name": "The Haveli", "name_en": null, "place": null, "landuse": "residential", "population": null, "is_in": null, "source": null, "name_sw": null, "osm_id": 8811633904.0, "osm_type": "nodes" }, "geometry": { "type": "Point", "coordinates": [ 36.819906784081155, -1.262666784430885 ] } },
{ "type": "Feature", "properties": { "OBJECTID": 16, "name": "Balozi Court", "name_en": null, "place": null, "landuse": "residential", "population": null, "is_in": null, "source": null, "name_sw": null, "osm_id": 5299873421.0, "osm_type": "nodes" }, "geometry": { "type": "Point", "coordinates": [ 36.847258104169917, -1.320404027096897 ] } },
{ "type": "Feature", "properties": { "OBJECTID": 17, "name": "Oasis Palace Apartments", "name_en": null, "place": null, "landuse": "residential", "population": null, "is_in": null, "source": null, "name_sw": null, "osm_id": 8361998828.0, "osm_type": "nodes" }, "geometry": { "type": "Point", "coordinates": [ 36.897187541653004, -1.309013219236226 ] } },
{ "type": "Feature", "properties": { "OBJECTID": 18, "name": "APEX APARTMENTS", "name_en": null, "place": null, "landuse": "residential", "population": null, "is_in": null, "source": null, "name_sw": null, "osm_id": 8425539445.0, "osm_type": "nodes" }, "geometry": { "type": "Point", "coordinates": [ 36.897536442212143, -1.308817918665295 ] } },
{ "type": "Feature", "properties": { "OBJECTID": 19, "name": "Nelaa Villas", "name_en": null, "place": null, "landuse": "residential", "population": null, "is_in": null, "source": null, "name_sw": null, "osm_id": 8370997650.0, "osm_type": "nodes" }, "geometry": { "type": "Point", "coordinates": [ 36.901857945154127, -1.308278418685444 ] } },
{ "type": "Feature", "properties": { "OBJECTID": 20, "name": "TASSY PALMS Apartments", "name_en": null, "place": null, "landuse": "residential", "population": null, "is_in": null, "source": null, "name_sw": null, "osm_id": 8370997649.0, "osm_type": "nodes" }, "geometry": { "type": "Point", "coordinates": [ 36.900156443704248, -1.30984591973497 ] } },
{ "type": "Feature", "properties": { "OBJECTID": 21, "name": "PARC VISTA", "name_en": null, "place": null, "landuse": "residential", "population": null, "is_in": null, "source": null, "name_sw": null, "osm_id": 8370986577.0, "osm_type": "nodes" }, "geometry": { "type": "Point", "coordinates": [ 36.908437150374986, -1.300327412495166 ] } },
{ "type": "Feature", "properties": { "OBJECTID": 22, "name": "Camp_David", "name_en": null, "place": null, "landuse": "residential", "population": null, "is_in": null, "source": null, "name_sw": null, "osm_id": 8233801633.999999, "osm_type": "nodes" }, "geometry": { "type": "Point", "coordinates": [ 36.905888048444737, -1.30043151244102 ] } },
{ "type": "Feature", "properties": { "OBJECTID": 23, "name": "DREAM PLAZA", "name_en": null, "place": null, "landuse": "residential", "population": null, "is_in": null, "source": null, "name_sw": null, "osm_id": 8196508800.999999, "osm_type": "nodes" }, "geometry": { "type": "Point", "coordinates": [ 36.903159446191779, -1.301081113350684 ] } },
{ "type": "Feature", "properties": { "OBJECTID": 24, "name": "Lower Savannah", "name_en": null, "place": "village", "landuse": null, "population": null, "is_in": null, "source": null, "name_sw": null, "osm_id": 10233407268.0, "osm_type": "nodes" }, "geometry": { "type": "Point", "coordinates": [ 36.90246814577965, -1.29259300672248 ] } },
{ "type": "Feature", "properties": { "OBJECTID": 25, "name": "Asif Apartments, Ngara", "name_en": null, "place": null, "landuse": "residential", "population": null, "is_in": null, "source": null, "name_sw": null, "osm_id": 10690624577.0, "osm_type": "nodes" }, "geometry": { "type": "Point", "coordinates": [ 36.818107182159551, -1.271811291017393 ] } },
{ "type": "Feature", "properties": { "OBJECTID": 26, "name": "Bric Apartments", "name_en": null, "place": null, "landuse": "residential", "population": null, "is_in": null, "source": null, "name_sw": null, "osm_id": 9587521622.0, "osm_type": "nodes" }, "geometry": { "type": "Point", "coordinates": [ 36.772990548952059, -1.293407706604878 ] } },
{ "type": "Feature", "properties": { "OBJECTID": 27, "name": "Tusker Village", "name_en": null, "place": "hamlet", "landuse": null, "population": null, "is_in": null, "source": null, "name_sw": null, "osm_id": 11243959855.0, "osm_type": "nodes" }, "geometry": { "type": "Point", "coordinates": [ 36.880044829134384, -1.233759562813755 ] } },
{ "type": "Feature", "properties": { "OBJECTID": 28, "name": "Vikam B Centre", "name_en": null, "place": null, "landuse": "residential", "population": null, "is_in": null, "source": null, "name_sw": null, "osm_id": 9220893674.0, "osm_type": "nodes" }, "geometry": { "type": "Point", "coordinates": [ 36.906857750103029, -1.213946747813338 ] } },
{ "type": "Feature", "properties": { "OBJECTID": 29, "name": "Bony Flats", "name_en": null, "place": null, "landuse": "residential", "population": null, "is_in": null, "source": null, "name_sw": null, "osm_id": 7185165508.0, "osm_type": "nodes" }, "geometry": { "type": "Point", "coordinates": [ 36.707187199477751, -1.266411186061319 ] } },
{ "type": "Feature", "properties": { "OBJECTID": 30, "name": "Sagwe Furnished Apartments", "name_en": null, "place": null, "landuse": "residential", "population": null, "is_in": null, "source": null, "name_sw": null, "osm_id": 8916714748.0, "osm_type": "nodes" }, "geometry": { "type": "Point", "coordinates": [ 36.802276570574186, -1.307444617241508 ] } },
{ "type": "Feature", "properties": { "OBJECTID": 31, "name": "Nirav Apartments", "name_en": null, "place": null, "landuse": "residential", "population": null, "is_in": null, "source": null, "name_sw": null, "osm_id": 8811640310.0, "osm_type": "nodes" }, "geometry": { "type": "Point", "coordinates": [ 36.82001128431574, -1.263542284961081 ] } },
{ "type": "Feature", "properties": { "OBJECTID": 32, "name": "Lenana", "name_en": null, "place": "village", "landuse": null, "population": null, "is_in": null, "source": null, "name_sw": null, "osm_id": 30092085.0, "osm_type": "nodes" }, "geometry": { "type": "Point", "coordinates": [ 36.736504521201688, -1.305469715383733 ] } },
{ "type": "Feature", "properties": { "OBJECTID": 33, "name": "Royal comfort", "name_en": null, "place": null, "landuse": "residential", "population": null, "is_in": null, "source": null, "name_sw": null, "osm_id": 6543058409.000001, "osm_type": "nodes" }, "geometry": { "type": "Point", "coordinates": [ 36.794684065297822, -1.266440587028154 ] } },
{ "type": "Feature", "properties": { "OBJECTID": 34, "name": "Mideya Garden Apartments", "name_en": null, "place": null, "landuse": "residential", "population": null, "is_in": null, "source": null, "name_sw": null, "osm_id": 9587526397.0, "osm_type": "nodes" }, "geometry": { "type": "Point", "coordinates": [ 36.772756148321847, -1.296880509336816 ] } },
{ "type": "Feature", "properties": { "OBJECTID": 35, "name": "Monomatapa Court", "name_en": null, "place": null, "landuse": "residential", "population": null, "is_in": null, "source": null, "name_sw": null, "osm_id": 9021135943.0, "osm_type": "nodes" }, "geometry": { "type": "Point", "coordinates": [ 36.774857949752722, -1.298137010613233 ] } },
{ "type": "Feature", "properties": { "OBJECTID": 36, "name": "Lenana Forest View", "name_en": null, "place": null, "landuse": "residential", "population": null, "is_in": null, "source": null, "name_sw": null, "osm_id": 6840641663.000001, "osm_type": "nodes" }, "geometry": { "type": "Point", "coordinates": [ 36.735458020017923, -1.305941815518338 ] } },
{ "type": "Feature", "properties": { "OBJECTID": 37, "name": "GemSuites", "name_en": null, "place": null, "landuse": "residential", "population": null, "is_in": null, "source": null, "name_sw": null, "osm_id": 10629403531.0, "osm_type": "nodes" }, "geometry": { "type": "Point", "coordinates": [ 36.809604275791116, -1.286989702245692 ] } },
{ "type": "Feature", "properties": { "OBJECTID": 38, "name": "Sarez Apartment", "name_en": null, "place": null, "landuse": "residential", "population": null, "is_in": null, "source": null, "name_sw": null, "osm_id": 7731361603.0, "osm_type": "nodes" }, "geometry": { "type": "Point", "coordinates": [ 36.902475146228326, -1.214039847993873 ] } },
{ "type": "Feature", "properties": { "OBJECTID": 39, "name": "Githogoro", "name_en": null, "place": "hamlet", "landuse": null, "population": null, "is_in": null, "source": null, "name_sw": null, "osm_id": 654848223.0, "osm_type": "nodes" }, "geometry": { "type": "Point", "coordinates": [ 36.823860487219456, -1.215822149006631 ] } },
{ "type": "Feature", "properties": { "OBJECTID": 40, "name": "DESEA COMPLEX", "name_en": null, "place": null, "landuse": "residential", "population": null, "is_in": null, "source": null, "name_sw": null, "osm_id": 8158542388.000001, "osm_type": "nodes" }, "geometry": { "type": "Point", "coordinates": [ 36.904427747642451, -1.300693112358831 ] } },
{ "type": "Feature", "properties": { "OBJECTID": 41, "name": "HARMONY PLACE", "name_en": null, "place": null, "landuse": "residential", "population": null, "is_in": null, "source": null, "name_sw": null, "osm_id": 8423617494.0, "osm_type": "nodes" }, "geometry": { "type": "Point", "coordinates": [ 36.903409246833881, -1.300944612836988 ] } },
{ "type": "Feature", "properties": { "OBJECTID": 42, "name": "TRIPPLE TOWERS APARTMENTS", "name_en": null, "place": null, "landuse": "residential", "population": null, "is_in": null, "source": null, "name_sw": null, "osm_id": 8233800495.0, "osm_type": "nodes" }, "geometry": { "type": "Point", "coordinates": [ 36.903775347244924, -1.301589213587548 ] } },
{ "type": "Feature", "properties": { "OBJECTID": 43, "name": "DEMAC APARTMENTS", "name_en": null, "place": null, "landuse": "residential", "population": null, "is_in": null, "source": null, "name_sw": null, "osm_id": 8168647313.0, "osm_type": "nodes" }, "geometry": { "type": "Point", "coordinates": [ 36.902584146402198, -1.302994014044563 ] } },
{ "type": "Feature", "properties": { "OBJECTID": 44, "name": "CHOSEN APARTMENTS", "name_en": null, "place": null, "landuse": "residential", "population": null, "is_in": null, "source": null, "name_sw": null, "osm_id": 8196522496.0, "osm_type": "nodes" }, "geometry": { "type": "Point", "coordinates": [ 36.905283347728577, -1.302301514022554 ] } },
{ "type": "Feature", "properties": { "OBJECTID": 45, "name": "Hazina Estate", "name_en": null, "place": null, "landuse": "residential", "population": null, "is_in": null, "source": null, "name_sw": null, "osm_id": 1580162023.9999998, "osm_type": "nodes" }, "geometry": { "type": "Point", "coordinates": [ 36.848516505446142, -1.316043723841708 ] } },
{ "type": "Feature", "properties": { "OBJECTID": 46, "name": "Congo", "name_en": null, "place": "hamlet", "landuse": null, "population": null, "is_in": null, "source": null, "name_sw": null, "osm_id": 11405285472.0, "osm_type": "nodes" }, "geometry": { "type": "Point", "coordinates": [ 36.753514234129241, -1.288377602759973 ] } },
{ "type": "Feature", "properties": { "OBJECTID": 47, "name": "Drive In", "name_en": null, "place": "hamlet", "landuse": null, "population": null, "is_in": null, "source": null, "name_sw": null, "osm_id": 11399873439.0, "osm_type": "nodes" }, "geometry": { "type": "Point", "coordinates": [ 36.869656221604203, -1.250489475251442 ] } },
{ "type": "Feature", "properties": { "OBJECTID": 48, "name": "Fountain Pointe Apartments", "name_en": null, "place": null, "landuse": "residential", "population": null, "is_in": null, "source": null, "name_sw": null, "osm_id": 9488978708.0, "osm_type": "nodes" }, "geometry": { "type": "Point", "coordinates": [ 36.909450451374788, -1.212645946991214 ] } },
{ "type": "Feature", "properties": { "OBJECTID": 49, "name": "Golden Mile", "name_en": null, "place": null, "landuse": "residential", "population": null, "is_in": null, "source": null, "name_sw": null, "osm_id": 6847249037.0, "osm_type": "nodes" }, "geometry": { "type": "Point", "coordinates": [ 36.874358925215645, -1.243860870376498 ] } },
{ "type": "Feature", "properties": { "OBJECTID": 50, "name": "Sifa Springs", "name_en": null, "place": null, "landuse": "residential", "population": null, "is_in": null, "source": null, "name_sw": null, "osm_id": 6830399993.0, "osm_type": "nodes" }, "geometry": { "type": "Point", "coordinates": [ 36.819892583972191, -1.32268422861991 ] } },
{ "type": "Feature", "properties": { "OBJECTID": 51, "name": null, "name_en": null, "place": null, "landuse": "residential", "population": null, "is_in": null, "source": null, "name_sw": null, "osm_id": 4586709389.0, "osm_type": "nodes" }, "geometry": { "type": "Point", "coordinates": [ 36.811814277250683, -1.312206020732427 ] } },
{ "type": "Feature", "properties": { "OBJECTID": 52, "name": "Harmony Court", "name_en": null, "place": null, "landuse": "residential", "population": null, "is_in": null, "source": null, "name_sw": null, "osm_id": 9357145387.0, "osm_type": "nodes" }, "geometry": { "type": "Point", "coordinates": [ 36.772162747429221, -1.304901815389989 ] } },
{ "type": "Feature", "properties": { "OBJECTID": 53, "name": "Luccky twin", "name_en": null, "place": null, "landuse": "residential", "population": null, "is_in": null, "source": null, "name_sw": null, "osm_id": 12121997044.0, "osm_type": "nodes" }, "geometry": { "type": "Point", "coordinates": [ 36.898379642920574, -1.24016226783845 ] } },
{ "type": "Feature", "properties": { "OBJECTID": 54, "name": "Mashimoni", "name_en": null, "place": "village", "landuse": null, "population": null, "is_in": null, "source": "KRCS2024", "name_sw": null, "osm_id": 11801871682.0, "osm_type": "nodes" }, "geometry": { "type": "Point", "coordinates": [ 36.863105516871364, -1.261202883270154 ] } },
{ "type": "Feature", "properties": { "OBJECTID": 55, "name": "Mashimoni Village", "name_en": null, "place": "village", "landuse": null, "population": null, "is_in": null, "source": "KRCS2024", "name_sw": null, "osm_id": 11801871687.0, "osm_type": "nodes" }, "geometry": { "type": "Point", "coordinates": [ 36.862923316796412, -1.262003284098499 ] } },
{ "type": "Feature", "properties": { "OBJECTID": 56, "name": "Waithaka", "name_en": null, "place": "village", "landuse": null, "population": null, "is_in": null, "source": null, "name_sw": null, "osm_id": 44910765.0, "osm_type": "nodes" }, "geometry": { "type": "Point", "coordinates": [ 36.716587306311908, -1.283328098691016 ] } },
{ "type": "Feature", "properties": { "OBJECTID": 57, "name": "Number 10", "name_en": null, "place": "village", "landuse": null, "population": null, "is_in": null, "source": "KRCS2024", "name_sw": null, "osm_id": 11801871685.0, "osm_type": "nodes" }, "geometry": { "type": "Point", "coordinates": [ 36.861527615717769, -1.263233285019702 ] } },
{ "type": "Feature", "properties": { "OBJECTID": 58, "name": "Clanson Court", "name_en": null, "place": null, "landuse": "residential", "population": null, "is_in": null, "source": null, "name_sw": null, "osm_id": 6247128108.0, "osm_type": "nodes" }, "geometry": { "type": "Point", "coordinates": [ 36.833510794602653, -1.257307680385354 ] } },
{ "type": "Feature", "properties": { "OBJECTID": 59, "name": "Kagondo", "name_en": null, "place": "village", "landuse": null, "population": null, "is_in": null, "source": null, "name_sw": null, "osm_id": 44999930.0, "osm_type": "nodes" }, "geometry": { "type": "Point", "coordinates": [ 36.699847793903743, -1.266628086398591 ] } },
{ "type": "Feature", "properties": { "OBJECTID": 60, "name": "Mowlem", "name_en": null, "place": "village", "landuse": null, "population": null, "is_in": null, "source": null, "name_sw": null, "osm_id": 11217863362.0, "osm_type": "nodes" }, "geometry": { "type": "Point", "coordinates": [ 36.895542740663302, -1.266651787738027 ] } },
{ "type": "Feature", "properties": { "OBJECTID": 61, "name": "Mutuini", "name_en": null, "place": "village", "landuse": null, "population": null, "is_in": null, "source": null, "name_sw": null, "osm_id": 44925766.0, "osm_type": "nodes" }, "geometry": { "type": "Point", "coordinates": [ 36.69998729341853, -1.30002811102377 ] } }
]
}
